id,City,Country,Date,Humidity,Lat,Lng,Cloudiness,Max Temp,Wind Speed
2126199,Cherskiy,RU,1661259749,73,68.75,161.3,100,56.07,7.72
3424607,Tasiilaq,GL,1661259751,69,65.6145,-37.6368,92,46.56,5.64
3558315,Gibara,CU,1661259752,70,21.1097,-76.1317,64,83.66,10.18
2110227,Butaritari,KI,1661259753,69,3.0707,172.7902,100,82.17,19.08
6088469,Nipawin,CA,1661259754,83,53.3668,-104.0009,0,55.44,6.91
3981432,Todos Santos,MX,1661259756,93,23.45,-110.2167,96,78.3,3.49
2025241,Churapcha,RU,1661259757,84,62.0025,132.4325,100,46.4,2.44
4030556,Rikitea,PF,1661259758,69,-23.1203,-134.9692,7,70.09,10.78
556268,Ostrovnoy,RU,1661259759,49,68.0531,39.5131,7,64.18,17.05
4032243,Vaini,TO,1661259761,75,-21.2,-175.2,0,72.23,8.68
3418910,Upernavik,GL,1661259762,90,72.7868,-56.1549,100,39.56,6.17
935214,Saint-Pierre,RE,1661259763,72,-21.3393,55.4781,0,74.88,25.32
546105,Nikolskoye,RU,1661259764,32,59.7035,30.7861,83,82.29,6.04
1015776,Bredasdorp,ZA,1661259766,30,-34.5322,20.0403,0,77.76,5.23
2315417,Inongo,CD,1661259767,72,-1.95,18.2667,56,73.4,1.81
3366880,Hermanus,ZA,1661259768,50,-34.4187,19.2345,0,71.74,3.91
964432,Port Alfred,ZA,1661259770,74,-33.5906,26.891,100,71.19,5.99
3985710,Cabo San Lucas,MX,1661259503,66,22.8909,-109.9124,75,83.52,10.36
5044290,Saint Anthony,US,1661259589,92,45.0205,-93.218,40,65.97,0.0
3874787,Punta Arenas,CL,1661259753,65,-53.15,-70.9167,99,41.11,21.7
6201424,Mataura,NZ,1661259775,89,-46.1927,168.8643,51,52.48,4.21
2469252,Menzel Salem,TN,1661259776,29,35.8567,8.4765,1,86.18,15.73
3831208,Qaanaaq,GL,1661259777,58,77.484,-69.3632,1,33.28,4.76
5866583,Saint Paul Harbor,US,1661259779,88,57.79,-152.4072,100,54.91,13.8
1490256,Talnakh,RU,1661259780,90,69.4865,88.3972,100,51.6,6.93
3461733,Guiratinga,BR,1661259781,24,-16.3494,-53.7583,0,83.77,12.66
4020109,Atuona,PF,1661259783,72,-9.8,-139.0333,90,75.81,13.18
2409914,Bonthe,SL,1661259784,74,7.5264,-12.505,100,81.3,12.37
2156643,Mount Gambier,AU,1661259490,92,-37.8333,140.7667,9,43.75,5.88
3369157,Cape Town,ZA,1661259605,32,-33.9258,18.4232,0,81.1,5.99
2028164,Deputatsky,RU,1661259787,93,69.3,139.9,100,39.74,4.43
1283285,Jumla,NP,1661259789,91,29.2747,82.1838,100,65.08,3.6
2138555,Poum,NC,1661259790,76,-20.2333,164.0167,13,74.88,19.33
5116642,Erie,US,1661259665,91,42.7667,-78.6664,100,69.22,11.01
1261580,Nayāgarh,IN,1661259792,79,20.1333,85.1,100,81.68,2.71
3374210,São Filipe,CV,1661259794,80,14.8961,-24.4956,51,80.02,4.54
1786855,Yatou,CN,1661259795,70,37.15,122.3833,7,70.72,15.55
5546220,Saint George,US,1661259509,31,37.1041,-113.5841,5,80.13,1.88
5855927,Hilo,US,1661259801,100,19.7297,-155.09,0,75.27,1.99
2074865,Carnarvon,AU,1661259802,38,-24.8667,113.6333,42,73.13,11.9
986717,Kruisfontein,ZA,1661259804,26,-34.0033,24.7314,13,77.88,11.88
1605754,Taphan Hin,TH,1661259805,74,16.2209,100.4198,85,83.37,4.52
2404036,Seidu,SL,1661259807,70,9.0167,-10.6,90,80.22,4.18
3387423,Sítio Novo do Tocantins,BR,1661259809,26,-5.5183,-47.4611,87,93.11,10.04
2729907,Longyearbyen,SJ,1661259793,65,78.2186,15.6401,40,42.64,10.36
5880054,Barrow,US,1661259811,96,71.2906,-156.7887,100,35.15,22.21
172515,Abu Samrah,SY,1661259812,27,35.3029,37.1841,0,93.81,17.49
4034551,Faanui,PF,1661259813,77,-16.4833,-151.75,10,77.07,17.98
2075265,Busselton,AU,1661259815,79,-33.65,115.3333,89,51.31,10.25
3833367,Ushuaia,AR,1661259651,83,-54.8,-68.3,100,36.23,9.64
2136825,Isangel,VU,1661259817,73,-19.55,169.2667,13,71.22,9.1
3430863,Mar del Plata,AR,1661259818,88,-38.0023,-57.5575,5,53.1,13.0
5106841,Albany,US,1661259617,87,42.6001,-73.9662,78,71.94,1.01
2120400,Tungor,RU,1661259822,98,53.3808,142.9564,100,53.29,15.03
1819729,Hong Kong,HK,1661259800,78,22.2855,114.1577,90,92.17,3.0
3929611,San Jerónimo,PE,1661259824,65,-11.9472,-75.2829,10,48.67,0.22
2022773,Khandyga,RU,1661259825,82,62.6667,135.6,100,45.88,1.05
3393471,Oriximiná,BR,1661259826,68,-1.7656,-55.8661,100,80.46,1.45
3347019,Mossamedes,AO,1661259828,69,-15.1961,12.1522,16,70.43,15.21
6165406,Thompson,CA,1661259829,76,55.7435,-97.8558,8,54.91,9.78
2122605,Okhotsk,RU,1661259830,93,59.3833,143.3,99,52.27,6.04
5882953,Aklavik,CA,1661259832,65,68.2191,-135.0107,100,44.31,10.09
1006984,East London,ZA,1661259634,60,-33.0153,27.9116,86,71.35,22.75
2324433,Abonnema,NG,1661259834,60,4.7084,6.7931,99,84.56,12.8
2163355,Hobart,AU,1661259570,77,-42.8794,147.3294,20,44.46,12.66
2276492,Harper,LR,1661259836,77,4.375,-7.7169,100,79.74,11.72
3115824,Muros,ES,1661259837,54,42.7762,-9.0603,98,86.85,12.62
218680,Boende,CD,1661259839,51,-0.2167,20.8667,94,85.87,5.23
5379439,Ontario,US,1661259657,79,34.0633,-117.6509,0,82.99,3.44
3893629,Coquimbo,CL,1661259841,83,-29.9533,-71.3436,1,55.31,1.28
3883457,Lebu,CL,1661259842,88,-37.6167,-73.65,100,51.37,4.9
5931800,Cranbrook,CA,1661259698,89,49.4999,-115.7688,5,54.52,1.83
2015306,Tiksi,RU,1661259845,83,71.6872,128.8694,100,40.14,4.74
2121385,Severo-Kuril'sk,RU,1661259846,96,50.6789,156.125,94,59.52,19.46
2206939,Bluff,NZ,1661259847,72,-46.6,168.3333,82,52.81,17.67
2184772,Te Karaka,NZ,1661259848,93,-38.4654,177.8679,2,45.7,3.15
2112309,Katsuura,JP,1661259850,94,35.1333,140.3,79,80.46,12.06
107304,Buraidah,SA,1661259851,9,26.326,43.975,0,105.64,7.47
2126123,Chokurdakh,RU,1661259852,85,70.6333,147.9167,100,44.82,12.86
933000,Tonota,BW,1661259854,17,-21.4833,27.4833,0,75.79,13.47
2208248,Kaitangata,NZ,1661259855,80,-46.2817,169.8464,100,41.54,4.38
5848280,Kapaa,US,1661259856,92,22.0752,-159.319,40,75.18,6.91
934479,Grand Gaube,MU,1661259857,63,-20.0064,57.6608,6,74.37,10.0
5962442,Goderich,CA,1661259859,76,43.7501,-81.7165,0,70.92,11.41
4035715,Avarua,CK,1661259860,88,-21.2078,-159.775,20,73.45,12.66
3471451,Arraial do Cabo,BR,1661259862,83,-22.9661,-42.0278,75,69.66,5.75
933995,Souillac,MU,1661259732,64,-20.5167,57.5167,20,73.78,10.36
2017155,Saskylakh,RU,1661259865,93,71.9167,114.0833,100,44.49,5.41
3628473,San Cristobal,VE,1661259866,83,7.7669,-72.225,100,68.38,4.0
5122534,Jamestown,US,1661259845,71,42.097,-79.2353,100,69.03,8.05
1735106,George Town,MY,1661259551,89,5.4112,100.3354,40,81.9,3.44
5847411,Kahului,US,1661259818,93,20.8947,-156.47,23,75.85,1.99
4031742,Egvekinot,RU,1661259875,68,66.3167,-179.1667,11,41.5,1.97
1651103,Atambua,ID,1661259876,84,-9.1061,124.8925,16,70.18,6.76
3383494,Moengo,SR,1661259877,89,5.6167,-54.4,69,78.12,3.49
3833062,Venado Tuerto,AR,1661259878,62,-33.7456,-61.9688,0,52.77,9.37
4946620,Palmer,US,1661259880,85,42.1584,-72.3287,75,71.78,3.44
1501429,Kuminskiy,RU,1661259881,74,58.6667,66.5667,89,71.49,3.15
2090021,Namatanai,PG,1661259882,74,-3.6667,152.4333,5,78.33,7.29
2082539,Merauke,ID,1661259884,84,-8.4667,140.3333,35,77.23,14.05
3698359,Chicama,PE,1661259885,79,-7.8447,-79.1469,77,57.74,3.49
3372707,Ribeira Grande,PT,1661259886,73,38.5167,-28.7,40,75.6,8.05
2022572,Khatanga,RU,1661259887,60,71.9667,102.5,100,45.75,8.55
1282256,Hithadhoo,MV,1661259889,74,-0.6,73.0833,99,82.26,15.39
5557293,Sitka,US,1661259890,82,57.0531,-135.33,100,60.69,4.61
4031574,Provideniya,RU,1661259891,82,64.3833,-173.3,12,46.85,2.95
1853140,Sakata,JP,1661259892,92,38.9167,139.855,92,74.79,9.73
5850554,Makakilo City,US,1661259696,87,21.3469,-158.0858,100,73.98,0.0
6170031,Tuktoyaktuk,CA,1661259895,69,69.4541,-133.0374,100,42.46,18.21
4033557,Tautira,PF,1661259677,78,-17.7333,-149.15,75,75.74,17.63
3573374,The Valley,AI,1661259897,83,18.217,-63.0578,40,85.82,13.8
2649089,Fraserburgh,GB,1661259898,80,57.6874,-2.0184,82,70.65,18.5
3175096,Laas,IT,1661259906,32,46.6166,10.7002,0,83.7,4.68
3576994,Cockburn Town,TC,1661259907,75,21.4612,-71.1419,100,82.18,11.9
3877348,Panguipulli,CL,1661259908,99,-39.6333,-72.3333,100,47.1,2.48
1808106,Hongjiang,CN,1661259910,64,27.11,109.9956,100,86.52,3.47
64814,Bandarbeyla,SO,1661259911,71,9.4942,50.8122,17,80.6,34.11
6185377,Yellowknife,CA,1661259912,65,62.456,-114.3525,63,46.56,8.99
934322,Mahébourg,MU,1661259914,64,-20.4081,57.7,20,74.25,10.36
3652764,Puerto Ayora,EC,1661259915,96,-0.7393,-90.3518,100,66.54,8.01
2152659,Port Macquarie,AU,1661259916,69,-31.4333,152.9167,87,54.9,12.95
933186,Orapa,BW,1661259918,19,-21.2833,25.3667,0,79.34,11.21
2155415,New Norfolk,AU,1661259919,82,-42.7826,147.0587,100,44.1,4.0
6166142,Thunder Bay,CA,1661259657,94,48.4001,-89.3168,100,62.51,3.44
305268,Kütahya,TR,1661259921,13,39.4242,29.9833,2,93.15,8.59
1503153,Klyuchi,RU,1661259922,41,52.2667,79.1667,97,63.52,6.85
3448903,São João da Barra,BR,1661259902,65,-21.6403,-41.0511,36,73.49,7.45
2192362,Christchurch,NZ,1661259925,91,-43.5333,172.6333,100,48.9,11.5
377472,Bentiu,SS,1661259926,47,9.2333,29.8333,95,90.91,1.88
964420,Port Elizabeth,ZA,1661259927,61,-33.918,25.5701,11,80.1,8.01
2108502,Honiara,SB,1661259932,83,-9.4333,159.95,8,77.16,5.59
2450173,Taoudenni,ML,1661259933,7,22.6783,-3.9836,64,115.16,7.29
3547867,Manzanillo,CU,1661259935,75,20.3433,-77.1167,36,80.58,3.2
57000,Hobyo,SO,1661259936,70,5.3505,48.5268,80,79.7,29.46
1629380,Ruteng,ID,1661259937,90,-8.6136,120.4721,93,58.46,1.16
5563839,Fortuna,US,1661259938,95,40.5982,-124.1573,100,62.92,9.22
2036892,Hohhot,CN,1661259943,61,40.8106,111.6522,100,59.41,4.72
1150965,Ranong,TH,1661259945,86,9.9658,98.6348,100,79.92,6.82
2212775,Sabha,LY,1661259946,17,27.0377,14.4283,0,101.44,4.63
1861864,Iida,JP,1661259947,99,35.5197,137.8207,97,75.04,3.0
1586350,Cam Ranh,VN,1661259949,69,11.9214,109.1591,20,82.36,13.8
1507390,Dikson,RU,1661259950,99,73.5069,80.5464,100,42.82,7.9
1859964,Kaseda-shirakame,JP,1661259951,81,31.4167,130.3167,100,81.27,6.78
5513343,Sunrise Manor,US,1661259850,41,36.2111,-115.0731,0,86.31,6.91
5870133,Nome,US,1661259953,93,64.5011,-165.4064,75,44.67,3.44
2032614,Baruun-Urt,MN,1661259955,53,46.6806,113.2792,100,55.51,2.06
1254709,Tezu,IN,1661259956,84,27.9167,96.1667,71,84.07,2.01
1068670,Bealanana,MG,1661259957,55,-14.55,48.7333,69,70.25,11.45
1790437,Zhuhai,CN,1661259959,84,22.2769,113.5678,0,89.38,8.05
3982269,Tecalitlán,MX,1661259960,97,19.4667,-103.3,75,66.65,1.97
1649150,Bengkulu,ID,1661259961,87,-3.8004,102.2655,100,77.14,4.56
1850217,Tōkamachi,JP,1661259964,97,37.1333,138.7667,100,78.01,0.65
779554,Honningsvåg,NO,1661259965,62,70.9821,25.9704,75,55.15,46.04
5815136,Washougal,US,1661259966,88,45.5826,-122.3534,20,63.61,4.61
3520064,Salina Cruz,MX,1661259967,72,16.1667,-95.2,6,79.14,5.26
6167817,Torbay,CA,1661259800,78,47.6666,-52.7314,100,71.89,8.84
704839,Koryukivka,UA,1661259970,23,51.7688,32.2481,12,90.63,19.01
2634739,Warrington,GB,1661259971,77,53.3925,-2.5802,75,74.61,10.36
212730,Kisangani,CD,1661259972,59,0.5167,25.2,91,82.44,4.88
6620339,Karratha,AU,1661259974,25,-20.7377,116.8463,0,73.47,15.03
3690572,Acandí,CO,1661259976,95,8.5063,-77.2778,100,76.06,2.53
2142316,Yeppoon,AU,1661259977,74,-23.1333,150.7333,0,62.38,7.65
2122090,Pevek,RU,1661259978,84,69.7008,170.3133,21,44.6,10.02
4803372,Cross Lanes,US,1661259981,98,38.4204,-81.7907,75,69.96,0.0
2638419,Scarborough,GB,1661259722,70,54.2797,-0.4044,96,76.91,1.99
5954718,Flin Flon,CA,1661259988,64,54.7682,-101.865,0,57.63,4.7
638936,Rovaniemi,FI,1661259989,51,66.5,25.7167,0,62.01,17.27
1855540,Naze,JP,1661259990,87,28.3667,129.4833,100,80.28,6.06
2125693,Evensk,RU,1661259992,99,61.95,159.2333,100,49.37,2.28
3893726,Constitución,CL,1661259994,89,-35.3333,-72.4167,100,53.17,3.13
1809461,Guiyang,CN,1661259995,82,26.5833,106.7167,100,75.47,3.94
2630299,Hofn,IS,1661259795,66,64.2539,-15.2082,100,53.62,18.41
2019488,Namtsy,RU,1661259998,95,62.7161,129.6658,100,45.28,4.85
1515029,Ulaangom,MN,1661259999,56,49.9811,92.0667,66,57.4,16.87
2269594,Cascais,PT,1661259821,65,38.6979,-9.4215,20,89.62,3.44
1633070,Palembang,ID,1661260002,78,-2.9167,104.7458,40,82.49,4.61
5924351,Clyde River,CA,1661260003,100,70.4692,-68.5914,100,37.63,18.41
4026082,Lázaro Cárdenas,MX,1661260005,82,17.9583,-102.2,81,78.75,3.91
5991148,Kentville,CA,1661260006,96,45.0835,-64.4988,100,68.13,9.53
5282297,Bethel,US,1661260007,84,41.3712,-73.414,100,75.29,5.75
484646,Tambov,RU,1661260008,22,52.7317,41.4339,4,87.76,13.0
2159220,Mackay,AU,1661260010,84,-21.15,149.2,0,62.69,4.59
2094342,Kavieng,PG,1661260011,70,-2.5744,150.7967,67,81.18,11.18
2132606,Samarai,PG,1661260012,85,-10.6167,150.6667,43,80.42,11.18
2014624,Udachny,RU,1661260014,86,66.4167,112.4,100,43.7,7.61
3466165,Cidreira,BR,1661260015,83,-30.1811,-50.2056,0,62.46,13.35
3141667,Roald,NO,1661260016,59,62.5833,6.1333,0,71.17,8.05
547591,Klimovo,RU,1661260017,25,52.3805,32.1923,15,89.6,18.1
1501377,Kungurtug,RU,1661260019,70,50.5994,97.5228,62,45.95,3.67
3843123,Neuquén,AR,1661259947,53,-38.9516,-68.0591,100,54.28,5.79
6182212,Williams Lake,CA,1661260022,95,52.1415,-122.1445,75,60.37,0.0
1650064,Barabai,ID,1661260023,94,-2.5833,115.3833,100,74.39,2.86
3980198,Villa Corona,MX,1661260024,96,20.4167,-103.6833,73,64.33,1.1
3359638,Walvis Bay,NA,1661260026,62,-22.9575,14.5053,27,65.3,8.59
1214658,Lhokseumawe,ID,1661260027,84,5.1801,97.1507,62,78.75,3.38
3867427,Mayor Pablo Lagerenza,PY,1661260028,39,-19.9309,-60.7718,34,80.98,6.13
352733,Marsá Maţrūḩ,EG,1661260030,56,31.3525,27.2453,16,86.7,14.32
1632694,Pangkalanbuun,ID,1661260031,89,-2.6833,111.6167,100,75.9,3.02
3421719,Narsaq,GL,1661260032,84,60.9167,-46.05,100,46.62,9.62
6096551,Pangnirtung,CA,1661260033,81,66.1451,-65.7125,100,38.35,4.03
3355672,Lüderitz,NA,1661260035,46,-26.6481,15.1594,8,68.11,13.6
2392087,Porto-Novo,BJ,1661260036,86,6.4965,2.6036,100,75.88,10.16
1021360,Ballitoville,ZA,1661260037,65,-29.539,31.2144,0,72.16,20.83
2077895,Alice Springs,AU,1661259759,42,-23.7,133.8833,0,40.55,8.05
3440777,Rocha,UY,1661260040,81,-34.4833,-54.3333,25,56.59,8.86
1696482,Pagudpud,PH,1661260041,95,18.5616,120.7868,100,78.78,4.45
3361934,Saldanha,ZA,1661260042,37,-33.0117,17.9442,0,73.94,7.9
1266305,Kolār,IN,1661260043,63,13.1333,78.1333,100,84.96,9.53
1629974,Rantepao,ID,1661260045,98,-2.9701,119.8978,100,66.25,1.74
1640344,Kendari,ID,1661260046,83,-3.945,122.4989,23,74.16,4.0
3652758,Puerto Baquerizo Moreno,EC,1661260047,85,-0.9,-89.6,100,68.02,11.54
2263905,Ribeira Brava,PT,1661260048,75,32.65,-17.0667,0,81.72,2.8
2236967,Soyo,AO,1661260050,74,-6.1349,12.3689,75,74.93,9.19
935215,Saint-Philippe,RE,1661260051,73,-21.3585,55.7679,39,74.79,14.05
2189343,Kaeo,NZ,1661260052,94,-35.1,173.7833,15,45.32,3.04
2514651,Los Llanos de Aridane,ES,1661260053,81,28.6585,-17.9182,20,78.12,16.11
3374083,Bathsheba,BB,1661260058,70,13.2167,-59.5167,40,86.61,14.97
659169,Hamina,FI,1661260059,67,60.5697,27.1979,20,78.08,6.33
3421319,Nuuk,GL,1661259817,93,64.1835,-51.7216,75,43.41,3.44
3571913,Marsh Harbour,BS,1661259929,73,26.5412,-77.0636,15,83.66,8.21
293842,Kiryat Gat,IL,1661260065,32,31.61,34.7642,0,90.79,13.87
3453586,Piranhas,BR,1661260067,25,-16.4269,-51.8222,0,83.8,9.62
4231997,Avera,US,1661260068,79,33.194,-82.5271,100,73.45,5.32
3470137,Belmonte,BR,1661260069,78,-15.8631,-38.8828,89,72.86,7.67
3598787,Champerico,GT,1661260070,82,14.3,-91.9167,77,75.74,5.75
361291,Hurghada,EG,1661260072,39,27.2574,33.8129,0,95.25,8.16
5905616,Bonnyville,CA,1661260073,68,54.2668,-110.735,27,49.8,2.08
230893,Kitgum,UG,1661260074,43,3.2783,32.8867,69,85.17,1.36
4833403,East Hartford,US,1661259931,97,41.7823,-72.612,100,73.89,5.75
4031637,Lavrentiya,RU,1661260077,87,65.5833,-171.0,0,36.39,3.22
3533022,Alpoyeca,MX,1661260078,94,17.6667,-98.5167,95,67.98,2.95
3146487,Raudeberg,NO,1661260079,65,61.9875,5.1352,73,65.95,1.01
1295765,Sittwe,MM,1661260080,86,20.15,92.9,65,79.79,14.14
3899695,Ancud,CL,1661260082,86,-41.8697,-73.8203,100,43.0,3.09
5354943,Half Moon Bay,US,1661260083,92,37.4636,-122.4286,100,64.02,5.75
2012530,Zhigansk,RU,1661260089,74,66.7697,123.3711,100,45.36,7.43
2027244,Bagdarin,RU,1661260090,86,54.4333,113.6,99,47.91,3.51
2685750,Östersund,SE,1661260091,52,63.1792,14.6357,0,64.85,4.61
1855612,Nara,JP,1661259954,52,34.6851,135.8049,100,86.5,0.69
2047258,Novyy Urgal,RU,1661260094,69,51.0736,132.5642,100,51.33,5.23
1505991,Igarka,RU,1661260095,75,67.4667,86.5833,70,60.69,0.94
3007608,Arrondissement de Lannion,FR,1661260096,69,48.75,-3.4167,100,75.18,8.05
2020838,Lensk,RU,1661260097,88,60.7253,114.9278,100,50.16,3.42
2271968,Aljezur,PT,1661260099,59,37.3191,-8.8033,100,78.91,5.53
3491355,Black River,JM,1661260100,76,18.0264,-77.8487,28,80.8,3.2
4021858,Guerrero Negro,MX,1661260101,86,27.9769,-114.0611,89,70.39,7.67
1106677,Bambous Virieux,MU,1661260102,64,-20.3428,57.7575,20,74.21,10.36
6089245,Norman Wells,CA,1661260104,80,65.282,-126.8329,33,45.77,4.07
601551,Akdepe,TM,1661260105,10,42.0551,59.3788,0,87.35,15.75
1611197,Chiang Khong,TH,1661260106,86,20.2613,100.4046,94,78.64,2.21
2019951,Mirny,RU,1661260109,81,62.5353,113.9611,95,48.24,7.0
4997130,Ingham,US,1661260110,87,42.6,-84.3833,0,63.18,0.0
1637001,Biak,ID,1661260111,82,-0.9131,122.8766,99,74.97,7.4
6690296,Saint-Joseph,RE,1661260112,70,-21.3667,55.6167,32,73.78,14.74
2122104,Petropavlovsk-Kamchatskiy,RU,1661260114,87,53.0452,158.6483,100,57.78,8.23
2032201,Bulgan,MN,1661260115,92,48.8125,103.5347,9,44.37,2.24
5955902,Fort Nelson,CA,1661260116,89,58.8053,-122.7002,26,53.98,2.95
5367788,Lompoc,US,1661260117,98,34.6391,-120.4579,100,57.34,10.36
1851068,Takanabe,JP,1661260119,88,32.1333,131.5,100,80.44,3.38
2618795,Klaksvík,FO,1661260120,95,62.2266,-6.589,73,56.32,10.65
3575051,Arima,TT,1661260121,78,10.6333,-61.2833,25,83.75,3.0
3572906,Andros Town,BS,1661260122,67,24.7,-77.7667,1,85.96,10.8
1494276,Poykovskiy,RU,1661260124,73,61.2333,73.3333,40,73.69,4.47
4033356,Tiarei,PF,1661260125,79,-17.5333,-149.3333,35,73.42,18.66
1166066,Sarai Naurang,PK,1661260127,33,32.8259,70.7814,18,98.83,4.0
2181625,Te Anau,NZ,1661260128,95,-45.4167,167.7167,100,44.89,8.23
5364271,Laguna,US,1661260129,82,38.421,-121.4238,0,69.31,6.91
1855363,Nirasaki,JP,1661260130,83,35.7,138.45,35,81.48,1.39
6355222,Yulara,AU,1661260132,39,-25.2406,130.9889,0,48.16,10.63
3531673,Cancún,MX,1661260133,89,21.1743,-86.8466,40,82.33,4.61
2297834,Mpraeso,GH,1661260134,90,6.5932,-0.7346,100,70.39,4.09
3835869,Santiago del Estero,AR,1661259836,26,-27.7951,-64.2615,0,63.5,4.79
1308522,Monywa,MM,1661260089,67,22.1167,95.1333,48,85.93,6.29
2016680,Shirokiy,RU,1661260137,63,49.758,129.523,0,56.28,13.09
1806993,Huayang,CN,1661260139,82,34.4155,109.9939,57,65.03,8.03
3480908,La Asuncion,VE,1661260140,74,11.0333,-63.8628,90,80.15,4.29
2191562,Dunedin,NZ,1661260141,69,-45.8742,170.5036,100,51.8,1.99
2961459,Skibbereen,IE,1661260143,67,51.55,-9.2667,71,66.25,9.01
2168305,Dubbo,AU,1661259940,93,-32.25,148.6167,100,37.53,8.05
1493623,Rodino,RU,1661260145,39,52.5,80.25,100,63.55,8.81
2178174,Albury,AU,1661260146,90,-36.0833,146.9167,1,39.33,3.49
287286,Muscat,OM,1661260147,55,23.6139,58.5922,79,89.62,9.73
3523127,Mixquiahuala de Juarez,MX,1661260149,89,20.2333,-99.2167,6,56.12,2.37
2418437,Kouroussa,GN,1661260150,70,10.65,-9.8833,100,82.99,7.4
1626542,Sorong,ID,1661260151,82,-0.8833,131.25,100,78.8,3.22
2036959,Heishan,CN,1661259922,69,41.6892,122.1128,100,63.99,5.61
1808857,Hanzhong,CN,1661260154,60,33.0728,107.0303,46,82.71,9.73
108410,Riyadh,SA,1661259890,10,24.6877,46.7219,22,111.34,10.54
2178753,Kirakira,SB,1661260156,80,-10.4544,161.9205,91,78.94,8.7
1738050,Marabu,MY,1661260157,75,4.4148,114.0089,100,80.64,3.94
5134295,Rome,US,1661260158,95,43.2128,-75.4557,100,69.94,0.0
2112802,Hasaki,JP,1661260160,93,35.7333,140.8333,100,81.28,11.65
3466704,Castro,BR,1661260161,70,-24.7911,-50.0119,0,58.01,5.99
2289887,Divo,CI,1661260162,82,5.8397,-5.36,100,78.37,5.37
3395981,Maceió,BR,1661260163,88,-9.6658,-35.7353,75,74.64,11.5
2034440,Tieli,CN,1661260165,71,46.95,128.05,0,54.27,4.99
5789856,Cheney,US,1661259986,55,47.4874,-117.5758,20,64.42,3.44
1701054,Marawi,PH,1661260167,95,7.9986,124.2928,100,69.75,3.38
3354077,Opuwo,NA,1661260169,6,-18.0607,13.84,5,84.78,4.99
2460546,Banamba,ML,1661260171,45,13.55,-7.45,57,91.63,1.07
3430443,Necochea,AR,1661260172,68,-38.5473,-58.7368,0,51.42,14.54
1152377,Lat Yao,TH,1661260173,76,15.751,99.7893,68,82.94,0.83
3428068,San Vicente,AR,1661260174,64,-26.6167,-54.1333,5,67.8,3.71
3982837,Sonoita,MX,1661260176,65,31.85,-112.8333,14,82.67,0.89
1270827,Gua,IN,1661260177,84,22.2,85.3833,100,77.74,1.63
1655124,Phonhong,LA,1661260178,85,18.5007,102.4166,100,80.46,1.81
3897347,Calama,CL,1661260180,6,-22.4667,-68.9333,0,45.09,19.57
3459909,Jerônimo Monteiro,BR,1661260181,49,-20.7894,-41.395,0,76.44,3.06
6141439,Sault Ste. Marie,CA,1661260159,90,46.5168,-84.3333,20,64.69,11.5
88533,Awjilah,LY,1661260183,20,29.1081,21.2869,0,98.31,17.49
686090,Asău,RO,1661260186,60,46.4333,26.4,100,81.52,0.76
3443061,Chui,UY,1661260191,81,-33.6971,-53.4616,53,57.54,7.38
6050066,La Ronge,CA,1661260193,72,55.1001,-105.2842,2,56.03,4.61
161616,Balkanabat,TM,1661260154,8,39.5108,54.3671,0,90.97,9.04
2128867,Noshiro,JP,1661260195,83,40.2039,140.0242,97,70.0,7.72
3372472,Vila Franca do Campo,PT,1661260132,59,37.7167,-25.4333,94,75.61,6.76
3386213,Touros,BR,1661260045,80,-5.1989,-35.4608,100,78.71,14.61
2070998,Geraldton,AU,1661260198,58,-28.7667,114.6,100,55.81,12.66
3421982,Maniitsoq,GL,1661260199,90,65.4167,-52.9,100,43.23,13.58
141736,Bam,IR,1661260201,5,29.106,58.357,0,90.46,18.57
2194098,Ahipara,NZ,1661260202,87,-35.1667,173.1667,9,53.06,4.29
3401148,Cururupu,BR,1661260203,50,-1.8283,-44.8683,100,87.17,6.67
3421193,Paamiut,GL,1661260205,82,61.994,-49.6678,100,45.41,42.05
467527,Savinskiy,RU,1661260206,67,62.9342,40.1361,98,72.73,6.22
1714733,Dingle,PH,1661260207,89,10.9995,122.6711,100,76.06,6.4
2264557,Ponta do Sol,PT,1661260208,73,32.6667,-17.1,1,81.72,3.15
4013039,Concepción del Oro,MX,1661260210,63,24.6333,-101.4167,68,63.79,4.79
2027044,Batagay,RU,1661260215,82,67.6333,134.6333,100,43.56,4.56
1444363,Nuristan,AF,1661260217,71,35.3,70.8333,69,50.34,1.48
217562,Butembo,CD,1661260218,72,0.15,29.2833,74,68.88,1.32
3423146,Ilulissat,GL,1661260219,81,69.2167,-51.1,75,50.02,12.66
2905599,Hersbruck,DE,1661260220,39,49.5125,11.4339,0,82.74,5.55
1651810,Airai,TL,1661260222,89,-8.9266,125.4092,10,55.22,3.78
1785018,Zhangzhou,CN,1661260223,82,24.5133,117.6556,91,82.29,2.17
2177069,Ballina,AU,1661260224,68,-28.8667,153.5667,28,57.24,18.12
464790,Zapolyarnyy,RU,1661260226,52,69.4154,30.8136,61,63.68,28.86
6943832,Riviere-au-Renard,CA,1661260227,76,48.9957,-64.3971,100,68.11,0.63
2377457,Nouadhibou,MR,1661260228,90,20.931,-17.0347,100,71.55,14.27
1630639,Pringsewu,ID,1661260229,95,-5.3582,104.9744,74,74.53,1.12
3932145,Pisco,PE,1661259970,82,-13.7,-76.2167,100,59.05,3.44
286621,Salalah,OM,1661260232,94,17.0151,54.0924,100,77.09,6.91
6201197,Muhafazat Lahij,YE,1661260233,42,13.1667,44.5833,91,94.98,13.91
101312,Turaif,SA,1661260234,17,31.6725,38.6637,0,91.4,11.77
3386177,Trairi,BR,1661259978,52,-3.2778,-39.2689,100,86.99,14.76
2274275,Robertsport,LR,1661260237,77,6.7533,-11.3686,100,79.54,11.1
4469146,Greensboro,US,1661260022,85,36.0726,-79.792,20,73.72,5.75
3388456,São José da Coroa Grande,BR,1661260239,84,-8.8978,-35.1478,76,76.5,13.58
754454,Wyszków,PL,1661260240,28,52.5928,21.4584,79,91.02,10.02
3414079,Olafsvik,IS,1661260242,72,64.8945,-23.7142,79,49.21,12.88
6148373,Sioux Lookout,CA,1661260243,100,50.1001,-91.917,100,59.07,3.44
6541905,Nola,IT,1661260244,53,40.922,14.5329,79,83.64,3.56
2654970,Brae,GB,1661260247,94,60.3964,-1.353,100,58.57,22.66
3691348,Tingo María,PE,1661260248,82,-9.2895,-76.0088,40,66.51,2.3
5404476,Ukiah,US,1661260153,89,39.1502,-123.2078,0,68.65,0.0
2738381,Lata,PT,1661260250,20,40.1629,-8.3327,100,99.52,7.36
110690,Faya,SA,1661260251,24,18.3851,42.4509,93,84.72,8.52
2092164,Lorengau,PG,1661260253,72,-2.0226,147.2712,81,81.41,7.94
5392368,San Marcos,US,1661260254,90,33.1434,-117.1661,100,68.94,3.44
7731836,Saint-Léonard,CA,1661260255,93,47.173,-67.9247,100,67.41,5.26
1816234,Bozhou,CN,1661260256,62,33.8772,115.7703,94,73.78,10.74
6255012,Flinders,AU,1661260259,70,-34.5833,150.8552,100,51.19,8.99
1633419,Padang,ID,1661260260,89,-0.9492,100.3543,100,75.25,5.08
1161724,Chabahar,IR,1661260261,76,25.2919,60.643,100,83.79,9.91
5935804,Dawson Creek,CA,1661260263,89,55.7666,-120.2362,87,56.86,1.83
1162105,Zhob,PK,1661260264,52,31.3411,69.4481,59,81.34,7.45
2012780,Zabaykal'sk,RU,1661260265,41,49.6333,117.3167,100,57.83,3.15
3373652,Oistins,BB,1661260267,70,13.0667,-59.5333,40,86.09,14.97
2018735,Nyurba,RU,1661260269,98,63.2842,118.3319,100,42.44,3.47
1636308,Manokwari,ID,1661260231,78,-0.8667,134.0833,98,79.36,3.98
152224,Mwanza,TZ,1661260271,29,-2.5167,32.9,98,85.23,11.07
2137773,Vao,NC,1661260272,73,-22.6667,167.4833,10,72.0,16.4
6542092,Anzio,IT,1661260274,62,41.4853,12.6179,3,93.69,13.51
2038665,Alihe,CN,1661260275,68,50.5667,123.7167,1,52.32,3.11
2122389,Ossora,RU,1661260276,83,59.2353,163.0719,7,54.09,4.41
3356832,Henties Bay,NA,1661260277,68,-22.116,14.2845,23,63.32,8.28
3420768,Qasigiannguit,GL,1661260279,92,68.8193,-51.1922,100,50.25,6.71
2033196,Zhangjiakou,CN,1661260280,57,40.81,114.8794,100,63.28,1.1
4726521,San Patricio,US,1661260281,82,28.017,-97.5169,100,84.15,4.32
1065158,Farafangana,MG,1661260283,72,-22.8167,47.8333,0,72.37,7.56
3421765,Nanortalik,GL,1661260285,83,60.1432,-45.2371,100,44.29,16.64
1624725,Tarakan,ID,1661260286,73,3.3,117.6333,100,83.37,9.48
1650527,Balikpapan,ID,1661260287,83,-1.2675,116.8289,40,81.59,5.75
1510916,Barabinsk,RU,1661260289,57,55.3571,78.357,9,62.17,5.97
625324,Mazyr,BY,1661260290,22,52.0495,29.2456,100,87.66,12.75
1283711,Bāglung,NP,1661260291,97,28.2719,83.5898,100,72.81,1.66
1529484,Kumul,CN,1661260292,17,42.8,93.45,7,78.66,8.34
607610,Zhangaözen,KZ,1661260294,17,43.3,52.8,0,86.58,5.77
3386467,Terra Santa,BR,1661260295,58,-2.1042,-56.4869,94,83.91,1.25
3837056,San Luis,AR,1661260226,26,-33.295,-66.3356,31,60.66,9.66
1687534,Santo Tomas,PH,1661260297,95,14.1079,121.1414,100,75.45,5.57
5150651,Clyde,US,1661260299,89,41.3042,-82.9752,46,70.56,6.53
4969398,Lewiston,US,1661260103,94,44.1003,-70.2148,100,71.53,11.5
3013633,Arrondissement du Havre,FR,1661260301,83,49.5833,0.3333,75,82.2,8.05
3364346,Malmesbury,ZA,1661260302,35,-33.4608,18.7271,0,79.52,4.36
1043893,Lichinga,MZ,1661260303,40,-13.3128,35.2406,73,71.02,5.84
2449893,Tessalit,ML,1661260305,15,20.1986,1.0114,11,104.49,11.41
3894426,Coyhaique,CL,1661260255,70,-45.5752,-72.0662,0,37.35,0.0
566950,Davydovo,RU,1661260307,27,55.6097,38.8569,100,89.42,5.44
4174301,Sumter,US,1661260308,82,28.7086,-82.0831,69,85.19,0.09
3443341,Carmelo,UY,1661260309,65,-33.9892,-58.2856,0,56.55,8.97
2155742,Narrabri,AU,1661260311,90,-30.3167,149.7833,6,40.51,1.01
4036284,Alofi,NU,1661260312,76,-19.0595,-169.9187,10,75.11,7.7
236950,Obo,CF,1661260280,73,5.3998,26.4869,86,76.87,6.8
2418596,Koundara,GN,1661260314,65,12.4833,-13.3,75,87.42,5.14
1502063,Krasnoturansk,RU,1661260316,62,54.3186,91.5639,81,53.08,5.99
2392009,Sakété,BJ,1661260317,82,6.7362,2.6587,100,76.44,10.56
3663693,Jutaí,BR,1661260318,60,-5.1833,-68.9,13,77.14,3.78
2219235,Ubari,LY,1661260319,12,26.5921,12.7805,0,103.68,8.08
286245,Sur,OM,1661260321,57,22.5667,59.5289,70,91.11,3.36
4017144,Bermejillo,MX,1661260322,61,25.8833,-103.6167,100,75.24,2.98
249842,Buşayrā,JO,1661260323,25,30.7376,35.6078,0,83.59,17.76
2031964,Darhan,MN,1661260324,93,49.4867,105.9228,100,51.93,5.84
3455070,Paranaguá,BR,1661260176,69,-25.52,-48.5092,27,68.2,1.07
2180815,Tuatapere,NZ,1661260327,83,-46.1333,167.6833,40,47.77,10.6
3407762,Amapá,BR,1661260328,58,1.0,-52.0,84,84.27,2.89
5855051,‘Ewa Beach,US,1661260325,80,21.3156,-158.0072,0,76.95,3.44
4034496,Fare,PF,1661260331,79,-16.7,-151.0167,9,76.5,18.37
602913,Skellefteå,SE,1661260182,46,64.7507,20.9528,0,70.16,8.05
3130124,Amurrio,ES,1661260334,64,43.05,-3.0,6,87.48,6.08
1486321,Yar-Sale,RU,1661260335,48,66.8333,70.8333,88,72.28,8.16
364933,Umm Kaddadah,SD,1661260336,33,13.6017,26.6876,100,92.98,3.96
580783,Arti,RU,1661260338,41,56.4234,58.5328,29,77.31,6.17
2303258,Boma,GH,1661260339,97,7.0805,-2.1697,100,72.43,4.61
1275050,Burla,IN,1661260340,74,21.5,83.8667,100,86.74,2.64
580182,Aykino,RU,1661260341,36,62.2248,49.9922,28,83.26,9.71
1853514,Owase,JP,1661260343,90,34.0667,136.2,100,81.19,2.28
5117949,Freeport,US,1661260094,76,40.6576,-73.5832,20,80.29,5.75
4593724,Saint Andrews,US,1661260348,81,34.0454,-81.1293,100,76.32,3.44
597231,Marijampolė,LT,1661260350,45,54.5667,23.35,1,83.75,8.03
3372964,Lagoa,PT,1661260351,78,39.05,-27.9833,100,72.88,13.78
5983720,Iqaluit,CA,1661260352,81,63.7506,-68.5145,100,41.7,5.99
88319,Benghazi,LY,1661260353,63,32.1167,20.0667,2,82.42,15.61
3520994,Puerto Escondido,MX,1661260355,83,15.85,-97.0667,20,76.03,8.05
1496100,Ordynskoye,RU,1661260356,55,54.3656,81.8994,38,60.35,4.52
1513491,Yangi Marg`ilon,UZ,1661260357,20,40.4272,71.7189,0,86.72,6.91
1056899,Sambava,MG,1661260359,74,-14.2667,50.1667,31,74.05,14.85
3445026,Vila Velha,BR,1661260360,72,-20.3297,-40.2925,40,76.95,13.8
2980080,Saint-François,FR,1661260361,47,46.4154,3.9054,0,81.68,9.22
3453659,Piracanjuba,BR,1661260362,35,-17.3028,-49.0167,1,75.78,13.18
2643044,Margate,GB,1661260190,70,51.3813,1.3862,12,77.88,8.99
5391959,San Francisco,US,1661259957,91,37.7749,-122.4194,75,63.21,12.66
2123814,Leningradskiy,RU,1661260366,95,69.3833,178.4167,35,34.23,9.42
3019766,La Baule-Escoublac,FR,1661260367,84,47.2922,-2.364,100,73.06,10.36
1850523,Tateyama,JP,1661260368,92,34.9833,139.8667,99,83.1,12.39
2253354,Dakar,SN,1661260369,77,14.6937,-17.4441,100,86.88,9.71
565289,Donskoye,RU,1661260371,14,45.4552,41.9741,0,92.97,24.27
1726449,Basco,PH,1661260372,85,20.4487,121.9702,73,83.19,34.74
610298,Beyneu,KZ,1661260373,19,45.3167,55.2,0,86.14,12.75
499782,Rzhaksa,RU,1661260375,20,52.1338,42.0264,0,87.85,15.9
1687186,Sarangani,PH,1661260376,73,5.4033,125.4636,100,83.44,8.68
2063042,Port Hedland,AU,1661260377,26,-20.3167,118.5667,0,68.05,8.05
1682180,Tignoan,PH,1661260378,89,14.5647,121.6197,100,77.95,10.87
55671,Kismayo,SO,1661260380,68,-0.3582,42.5454,60,78.93,18.97
1510377,Belyy Yar,RU,1661260381,63,53.6039,91.3903,0,58.89,2.24
2429344,Kyabé,TD,1661260382,56,9.4515,18.9449,39,87.4,6.62
2562247,Marsaxlokk,MT,1661260383,54,35.8419,14.5431,20,86.61,8.05
1621313,Ambulu,ID,1661260385,81,-8.345,113.6058,100,73.72,6.71
1715015,Dicabisagan,PH,1661260386,87,17.0818,122.4157,100,79.34,18.99
2120591,Tilichiki,RU,1661260387,91,60.4667,166.1,70,49.69,0.78
2013279,Vostok,RU,1661260389,99,46.4856,135.8833,100,49.8,9.57
2068655,Katherine,AU,1661260390,37,-14.4667,132.2667,0,66.52,5.75
2360541,Gayéri,BF,1661260391,66,12.6497,0.4931,99,83.48,11.95
3397154,Juazeiro,BR,1661260392,61,-9.4117,-40.4986,75,77.18,12.66
6171633,Ucluelet,CA,1661260394,92,48.9329,-125.5528,23,59.09,5.17
4280539,Topeka,US,1661260109,92,39.0483,-95.678,40,69.22,1.01
3002510,Le Pradet,FR,1661260396,60,43.1066,6.0172,0,92.61,6.91
610612,Aktau,KZ,1661260397,33,43.65,51.2,0,86.58,9.35
310892,Kadirli,TR,1661260399,51,37.3739,36.0961,26,90.91,11.81
866062,Iskateley,RU,1661260406,60,67.6803,53.1512,100,66.06,15.84
3452640,Porto Seguro,BR,1661260407,78,-16.4497,-39.0647,75,75.72,3.44
2063036,Port Lincoln,AU,1661260408,69,-34.7333,135.8667,89,52.61,12.5
8079926,Labuhan,ID,1661260409,75,-6.8844,112.2051,26,80.64,8.23
524534,Mukhtolovo,RU,1661260411,24,55.4644,43.1953,4,87.19,6.26
553766,Kamenka,RU,1661260412,19,51.3223,42.7678,0,87.15,16.15
5969025,Haines Junction,CA,1661260413,97,60.7522,-137.5108,99,50.18,6.38
644499,Nivala,FI,1661260414,42,63.9167,24.9667,97,68.68,4.25
1214073,Rantauprapat,ID,1661260416,97,2.1,99.8333,85,74.14,0.63
758651,Sokółka,PL,1661260417,39,53.4072,23.5023,17,83.68,10.29
3139597,Sistranda,NO,1661260418,76,63.7256,8.834,42,66.16,14.25
162627,Yabrūd,SY,1661260420,31,33.9674,36.6574,42,81.52,8.75
3577430,Road Town,VG,1661260421,79,18.4167,-64.6167,40,84.29,9.22
5046001,Sartell,US,1661260224,90,45.6216,-94.2069,75,63.97,0.0
2109701,Auki,SB,1661260423,87,-8.7676,160.7034,21,76.98,3.98
777019,Vardø,NO,1661260424,51,70.3705,31.1107,0,62.58,23.02
662622,Vlădeşti,RO,1661260426,65,45.1167,24.3,100,78.21,1.99
964406,Port Shepstone,ZA,1661260427,64,-30.7414,30.455,5,68.76,24.23
693510,Slobidka,UA,1661260215,28,47.8869,29.3461,5,91.04,12.48
3516926,Pinotepa Nacional,MX,1661260429,92,16.3167,-98.0167,92,72.95,3.53
2037335,Fuyu,CN,1661260430,71,45.1833,124.8167,93,58.66,2.82
1310120,Mawlaik,MM,1661260436,97,23.6333,94.4167,3,77.97,1.39
2122614,Ekhabi,RU,1661260437,98,53.5102,142.9671,100,53.26,19.71
1267394,Kāvali,IN,1661260439,51,14.9167,79.9833,95,91.26,8.21
4004293,Ixtapa,MX,1661260440,83,20.7,-105.2,75,77.23,9.22
102527,Sakakah,SA,1661260150,11,29.9697,40.2064,0,97.54,16.84
2027002,Bayangol,RU,1661260442,96,50.6977,103.4656,96,46.18,5.93
4174715,Tallahassee,US,1661259908,91,30.4383,-84.2807,100,78.64,1.14
1849892,Tottori-shi,JP,1661260287,81,35.5,134.2333,1,76.98,4.0
1707511,Languyan,PH,1661260449,82,5.2618,120.0807,100,79.86,4.54
3393692,Itarema,BR,1661260450,52,-2.9248,-39.9167,100,87.17,16.44
6111696,Port-Cartier,CA,1661260348,69,50.0334,-66.8654,100,62.74,4.47
2134814,Sola,VU,1661260457,76,-13.8833,167.55,64,79.75,20.62
933077,Shakawe,BW,1661260459,11,-18.3667,21.85,5,86.11,9.37
3372760,Praia da Vitória,PT,1661260460,76,38.7333,-27.0667,100,77.76,9.06
1503037,Kodinsk,RU,1661260461,95,58.6881,99.1844,63,45.16,4.34
689817,Verkhovyna,UA,1661260462,85,48.1557,24.7911,100,70.9,2.15
922704,Lubumbashi,CD,1661260234,22,-11.6609,27.4794,39,82.65,6.93
1197895,Keshabpur,BD,1661260465,87,22.9183,89.2112,100,80.17,6.08
473910,Vetluga,RU,1661260466,33,57.8557,45.781,5,85.17,5.97
137268,Sūsangerd,IR,1661260467,6,31.5608,48.1831,0,111.56,19.93
5972291,Havre-St-Pierre,CA,1661260469,90,50.2334,-63.5986,100,64.31,4.92
3388304,São Miguel,BR,1661260470,78,-5.4667,-35.3667,99,72.37,16.71
778707,Mehamn,NO,1661260471,47,71.0357,27.8492,20,62.51,42.57
189741,Lamu,KE,1661260472,71,-2.2717,40.902,6,80.82,17.45
1217007,Koson,UZ,1661260474,8,39.0375,65.585,0,89.92,6.33
1502862,Kolpashevo,RU,1661260475,72,58.3131,82.9089,100,59.18,4.94
1694365,Patnongon,PH,1661260476,83,10.9132,121.9937,100,78.78,5.14
2270385,Camacha,PT,1661260477,73,33.0833,-16.3333,40,72.82,16.11
111822,Yazd,IR,1661260479,8,31.8972,54.3675,1,90.86,11.95
3021221,Dombasle-sur-Meurthe,FR,1661260480,37,48.6252,6.3497,0,85.33,5.75
2206894,Hokitika,NZ,1661260481,84,-42.7167,170.9667,100,46.38,5.32
338832,Dire Dawa,ET,1661260482,37,9.5931,41.8661,17,86.23,12.44
3489440,Morant Bay,JM,1661260484,74,17.8815,-76.4093,58,83.82,7.49
3420846,Qaqortoq,GL,1661260485,84,60.7167,-46.0333,100,43.7,9.71
2139521,Noumea,NC,1661260486,99,-22.2763,166.4572,0,73.0,8.63
2246451,Saint-Louis,SN,1661260487,43,16.3333,-15.0,97,94.1,5.75
564234,Dukhovshchina,RU,1661260489,34,55.1919,32.4111,69,84.52,8.75
1490085,Tarko-Sale,RU,1661260490,57,64.9225,77.785,6,71.4,7.9
5905393,Bonavista,CA,1661260491,73,48.6499,-53.1147,100,65.03,11.61
3359736,Vredendal,ZA,1661260493,9,-31.6683,18.5012,0,91.99,16.89
152663,Mugumu,TZ,1661260494,25,-1.85,34.7,98,82.56,6.53
5866063,Kenai,US,1661260495,89,60.5544,-151.2583,100,53.65,4.61
3500957,La Romana,DO,1661260498,89,18.4273,-68.9728,40,82.76,0.0
2314705,Kikwit,CD,1661260499,30,-5.041,18.8162,100,94.96,1.79
3984997,San Quintín,MX,1661260500,89,30.4833,-115.95,37,68.47,6.8
3994469,Ojinaga,MX,1661260501,100,29.5667,-104.4167,0,70.75,0.0
123941,Mīnāb,IR,1661260503,25,27.1467,57.0801,20,102.52,6.91
8010683,Porto Santo,PT,1661260504,65,33.072,-16.3415,40,77.38,13.8
5919850,Chapais,CA,1661260505,69,49.7834,-74.8492,65,62.38,3.94
3155152,Gravdal,NO,1661260507,76,68.1214,13.5031,75,51.69,11.5
3355624,Maltahöhe,NA,1661260508,6,-24.8333,16.9833,4,81.01,16.17
1519030,Chu,KZ,1661260509,13,43.5983,73.7614,0,84.49,13.89
1516589,Zhezkazgan,KZ,1661260511,27,47.8043,67.7144,0,73.38,17.9
876123,Lumeje,AO,1661260512,14,-11.55,20.7833,54,88.95,7.96
1786770,Yibin,CN,1661260513,59,28.7667,104.6238,53,91.29,0.65
1257928,Sabalgarh,IN,1661260514,81,26.25,77.4,30,80.04,11.3
2782054,Bad Hall,AT,1661260516,88,48.0383,14.2077,100,64.11,5.99
2181997,Takaka,NZ,1661260517,81,-40.85,172.8,7,51.57,6.06
2027042,Batagay-Alyta,RU,1661260518,92,67.8006,130.4114,100,39.63,2.62
1651531,Ambon City,ID,1661260520,100,-3.6954,128.1814,40,75.34,4.61
1489401,Toora-Khem,RU,1661260521,62,52.4675,96.11,34,48.2,4.56
5746545,Portland,US,1661260054,83,45.5234,-122.6762,20,63.75,4.61
5554428,Ketchikan,US,1661260523,94,55.3422,-131.6461,100,57.67,0.0
4019219,Agua Verde,MX,1661260524,87,22.9,-106.05,61,75.29,2.3
1788852,Xining,CN,1661260273,83,36.6167,101.7667,90,65.3,6.26
3832791,Villa Carlos Paz,AR,1661260273,28,-31.4241,-64.4978,0,61.88,4.88
1254046,Tura,IN,1661260528,95,25.5198,90.2201,100,77.34,3.8
1062553,Mahanoro,MG,1661260529,64,-19.9,48.8,9,73.6,6.38
2176639,Batemans Bay,AU,1661260530,81,-35.7167,150.1833,100,44.31,8.39
3658666,Cuenca,EC,1661260532,76,-2.8833,-78.9833,20,50.13,3.44
2297810,Mumford,GH,1661260535,83,5.2618,-0.759,100,76.21,14.09
2186111,Ngunguru,NZ,1661260536,90,-35.6167,174.5,25,51.4,6.85
1735799,Sri Aman,MY,1661260537,94,1.2376,111.4621,100,77.05,0.0
1852357,Shimoda,JP,1661260540,93,34.6667,138.95,100,80.1,7.25
485215,Synya,RU,1661260541,39,65.3718,58.0387,73,80.22,8.95
2445704,Diffa,NE,1661260542,48,13.3154,12.6113,95,90.73,9.06
4619943,East Brainerd,US,1661260544,94,34.9959,-85.1502,75,73.17,0.0
666600,Şoarş,RO,1661260546,41,45.9333,24.9167,93,82.4,2.71
2030065,Mandalgovi,MN,1661260547,65,45.7625,106.2708,53,51.51,2.84
3533462,Acapulco de Juárez,MX,1661260348,78,16.8634,-99.8901,75,76.82,6.91
1106643,Quatre Cocos,MU,1661260549,69,-20.2078,57.7625,21,73.51,17.02
1785036,Zhangye,CN,1661260551,60,38.9342,100.4517,50,69.49,6.46
1235846,Matara,LK,1661260552,83,5.9485,80.5353,100,79.61,14.41
1493162,Salym,RU,1661260553,63,60.0625,71.4789,36,71.13,1.14
104515,Makkah al Mukarramah,SA,1661260414,13,21.4267,39.8261,89,105.64,24.81
1067565,Beloha,MG,1661260555,57,-25.1667,45.05,5,76.26,18.34
1262546,Mūlki,IN,1661260557,94,13.1,74.8,100,76.28,5.75
578953,Barvikha,RU,1661260558,31,55.74,37.27,0,90.36,8.95
1260206,Pāsighāt,IN,1661260559,85,28.0667,95.3333,23,83.46,1.32
702477,Lyubech,UA,1661260560,19,51.7026,30.6569,40,88.05,16.89
2174444,Bowen,AU,1661260562,84,-20.0167,148.2333,0,66.36,4.54
1651591,Amahai,ID,1661260563,88,-3.3333,128.9167,99,77.36,5.3
2641434,Northam,GB,1661260564,68,51.0333,-4.2167,96,70.25,11.3
3445831,Uberlândia,BR,1661260309,33,-18.9186,-48.2772,0,74.17,13.62
1337617,Muli,MV,1661260567,74,2.9167,73.5667,98,82.99,13.96
5816320,Bainbridge Island,US,1661260438,87,47.6262,-122.5212,0,61.27,1.01
2017215,Sangar,RU,1661260569,99,63.9242,127.4739,100,44.74,3.24
6086673,Neepawa,CA,1661260570,95,50.2289,-99.4664,63,64.8,5.14
2381972,Adrar,MR,1661260571,13,20.5022,-10.0711,2,106.09,5.53
652977,Keuruu,FI,1661260573,54,62.2667,24.7,100,69.98,3.53
1166993,Rawalpindi,PK,1661260574,66,33.6007,73.0679,3,90.23,3.0
1166062,Sarai Sidhu,PK,1661260575,52,30.5949,71.9698,50,95.04,4.34
245785,Abéché,TD,1661260577,49,13.8292,20.8324,96,88.81,6.76
3625710,Upata,VE,1661260578,88,8.0086,-62.3989,77,72.19,4.76
1489853,Tazovsky,RU,1661260579,62,67.4667,78.7,98,63.57,12.82
113632,Taft,IR,1661260580,8,31.7471,54.2088,0,89.55,11.5
256952,Milos,GR,1661260582,73,36.75,24.4333,100,77.68,3.94
6111862,Port Hardy,CA,1661260583,100,50.6996,-127.4199,100,57.38,3.44
636947,Siilinjärvi,FI,1661260584,77,63.0833,27.6667,20,64.42,4.61
3450843,Rubiataba,BR,1661260587,30,-15.1644,-49.8033,7,78.89,11.32
2018069,Peleduy,RU,1661260588,83,59.6289,112.7406,100,50.22,2.89
3464274,Encantado,BR,1661260589,74,-29.2361,-51.8697,0,65.05,3.4
3472864,Águas Formosas,BR,1661260590,73,-17.0822,-40.9358,100,67.57,2.75
4220629,St. Marys,US,1661260592,91,30.7305,-81.5465,0,82.51,6.91
1276416,Betamcherla,IN,1661260593,48,15.4667,78.1667,82,87.64,15.17
1855342,Nishihara,JP,1661260594,79,26.1842,127.7558,20,85.28,10.36
298033,Viranşehir,TR,1661260596,18,37.2353,39.7631,0,98.29,11.32
1614455,Ban Phai,TH,1661260597,68,16.06,102.731,100,84.42,2.95
518619,Novaya Malykla,RU,1661260598,23,54.2,49.95,31,87.51,8.37
2012956,Yerbogachën,RU,1661260599,85,61.2767,108.0108,100,45.45,3.67
2395915,Abomey,BJ,1661260601,88,7.1829,1.9912,100,74.35,9.17
951441,Sundumbili,ZA,1661260602,48,-29.1337,31.3975,0,73.67,15.77
3517970,Pochutla,MX,1661260603,77,15.7432,-96.4661,7,76.82,3.67
4513583,Hamilton,US,1661260604,93,39.1834,-84.5333,75,70.75,6.91
3405924,Beberibe,BR,1661260606,57,-4.1797,-38.1306,24,84.6,12.77
5710360,Winnemucca,US,1661260321,32,40.973,-117.7357,0,51.85,0.0
3394745,Mocajuba,BR,1661260613,44,-2.5842,-49.5072,61,89.06,2.68
2620767,Harboøre,DK,1661260614,63,56.6175,8.1807,18,72.27,16.15
1489656,Teya,RU,1661260616,90,60.3778,92.6267,100,49.35,5.17
2521582,Arona,ES,1661260617,51,28.0996,-16.681,20,83.01,24.16
921786,Mitsamiouli,KM,1661260618,72,-11.3847,43.2844,50,76.87,12.01
2013465,Verkhoyansk,RU,1661260619,79,67.5447,133.385,100,44.71,4.25
2158767,Mareeba,AU,1661260621,98,-17.0,145.4333,10,65.12,1.61
2171465,Clarence Town,AU,1661260622,96,-32.5833,151.7833,100,46.94,14.5
2464701,Tataouine,TN,1661260624,30,32.9297,10.4518,0,93.02,6.53
2112576,Ishinomaki,JP,1661260625,93,38.4167,141.3,12,75.76,3.67
1283217,Khanbari,NP,1661260626,88,27.3747,87.2039,100,76.14,1.79
496285,Severodvinsk,RU,1661260628,63,64.5635,39.8302,100,68.11,7.0
4986020,Big Rapids,US,1661260388,100,43.6981,-85.4837,0,61.09,0.0
58933,Garoowe,SO,1661260636,35,8.4054,48.4845,100,88.2,23.69
1628884,Sampit,ID,1661260637,89,-2.5333,112.95,100,75.24,3.18
709584,Druzhba,UA,1661260638,32,52.0428,33.9453,49,87.87,12.44
1643078,Indramayu,ID,1661260641,69,-6.3264,108.32,57,82.17,11.92
2125711,Esso,RU,1661260642,76,55.9333,158.7,100,55.62,5.44
2348773,Awka,NG,1661260643,72,6.2101,7.0741,98,81.82,9.31
4891382,Evanston,US,1661260377,72,42.0411,-87.6901,40,71.11,6.91
1502073,Krasnosel'kup,RU,1661260646,54,65.7,82.4667,16,69.03,9.62
2210554,Sirte,LY,1661260647,49,31.2089,16.5887,0,86.47,13.71
1528998,Yumen,CN,1661260648,34,40.2833,97.2,0,74.01,13.42
3619267,El Viejo,NI,1661260649,100,12.6633,-87.1672,40,73.62,0.0
2140558,Koumac,NC,1661260651,77,-20.5667,164.2833,72,73.0,3.85
1604767,Yasothon,TH,1661260652,73,15.75,104.1333,95,83.26,1.48
3546791,Moa,CU,1661260653,78,20.6569,-74.9403,100,82.0,7.14
2381334,Atar,MR,1661260655,22,20.5169,-13.0499,12,102.96,4.41
2016307,Solnechnyy,RU,1661260656,94,50.7214,136.6319,100,51.01,15.23
3104324,Zaragoza,ES,1661260578,33,41.6561,-0.8773,0,92.01,3.44
2055868,Yantal',RU,1661260658,95,56.8471,105.2542,100,43.84,7.94
1608263,Nong Chik,TH,1661260659,73,6.8436,101.178,100,80.73,8.84
3833883,Trelew,AR,1661260661,54,-43.249,-65.3051,100,55.62,7.45
1527497,Kyzyl-Suu,KG,1661260666,46,42.3414,78.0056,7,63.52,2.62
5082790,Atkinson,US,1661260668,95,42.8384,-71.147,100,71.19,1.01
2447513,Arlit,NE,1661260669,22,18.7369,7.3853,96,101.28,9.33
471909,Vorontsovka,RU,1661260670,13,50.6132,40.3549,0,90.16,16.42
2071860,Esperance,AU,1661260496,63,-33.8667,121.9,83,53.38,5.32
2436400,Ati,TD,1661260672,46,13.2154,18.3353,37,91.89,7.94
1791464,Wenling,CN,1661260674,87,28.3669,121.36,100,81.72,6.98
3416888,Grindavik,IS,1661260676,71,63.8424,-22.4338,0,57.15,16.11
4267661,Arkansas City,US,1661260451,72,37.062,-97.0384,0,67.68,3.44
3662252,São Paulo de Olivença,BR,1661260678,66,-3.3783,-68.8725,27,78.06,3.78
921889,Fomboni,KM,1661260680,76,-12.28,43.7425,15,75.45,15.68
1789647,Xichang,CN,1661260681,84,27.8964,102.2634,100,72.43,4.21
2513222,Níjar,ES,1661260682,34,36.9665,-2.206,20,91.04,17.27
207570,Mwene-Ditu,CD,1661260683,16,-7.0,23.45,35,93.9,5.48
3404558,Cabedelo,BR,1661260685,82,-6.9811,-34.8339,75,74.07,16.13
1337607,Kudahuvadhoo,MV,1661260686,72,2.6708,72.8944,91,83.16,13.0
552465,Kargopol',RU,1661260687,35,61.5071,38.9456,81,81.36,6.33
2312895,Mbandaka,CD,1661260689,52,0.0487,18.2603,87,83.7,1.28
4004274,Ixtlahuacán del Río,MX,1661260690,97,20.8667,-103.25,46,60.28,1.1
3388266,São Miguel do Tapuio,BR,1661260546,37,-5.5036,-41.3233,100,88.56,10.02
2084442,Vanimo,PG,1661260692,87,-2.6741,141.3028,100,78.89,7.0
3369174,Calvinia,ZA,1661260693,12,-31.4707,19.776,0,77.02,19.35
2439155,Tanout,NE,1661260695,40,14.9709,8.8879,100,90.57,9.04
3663475,Maraã,BR,1661260696,69,-1.8333,-65.3667,67,78.62,2.71
1337606,Eydhafushi,MV,1661260697,77,5.1033,73.0708,58,81.73,14.5
2014743,Tygda,RU,1661260698,74,53.1167,126.3333,3,54.27,6.87
359796,Suez,EG,1661260700,20,29.9737,32.5263,0,101.86,13.06
6316343,Alta Floresta,BR,1661260701,33,-9.8756,-56.0861,48,87.62,11.5
4615145,Cookeville,US,1661260519,99,36.1628,-85.5016,0,72.41,1.01
486645,Sukhobezvodnoye,RU,1661260708,32,57.0491,44.8891,6,85.05,5.79
3832899,Viedma,AR,1661260709,41,-40.8135,-62.9967,17,57.07,16.06
1252783,Yārāda,IN,1661260710,94,17.65,83.2667,75,80.92,2.3
