City,Cloudiness,Country,Date,Humidity,Lat,Lng,Max Temp,Wind Speed,id
Kaitangata,0,NZ,1543771172,94,-46.28,169.85,54.82,6.17,2208248
Sao Joao da Barra,75,BR,1543770000,65,-21.64,-41.05,82.4,16.11,3448903
Thompson,90,CA,1543768620,92,55.74,-97.86,21.2,2.24,6165406
Vaini,8,IN,1543770756,73,15.34,74.49,64.54,3.71,1273574
Atuona,24,PF,1543770751,99,-9.8,-139.03,81.24,15.35,4020109
Klaksvik,68,FO,1543769400,80,62.23,-6.59,35.6,12.75,2618795
Hermanus,0,ZA,1543771179,48,-34.42,19.24,63.69,7.63,3366880
Ushuaia,20,AR,1543770000,39,-54.81,-68.31,62.6,29.97,3833367
Bluff,0,AU,1543770767,71,-23.58,149.07,78.22,9.98,2175403
Khatanga,56,RU,1543771183,33,71.98,102.47,-22.0,4.16,2022572
Mahebourg,20,MU,1543770000,78,-20.41,57.7,75.2,6.93,934322
Torbay,75,CA,1543770000,80,47.66,-52.73,35.6,5.82,6167817
Uyuni,0,BO,1543771186,11,-20.46,-66.82,64.27,11.54,3901903
Cabo San Lucas,40,MX,1543768800,60,22.89,-109.91,73.4,8.05,3985710
Rio de Janeiro,75,BR,1543770000,66,-22.91,-43.21,84.2,14.99,3451190
Port-Gentil,75,GA,1543770000,88,-0.72,8.78,80.6,5.82,2396518
Cape Town,20,ZA,1543766400,56,-33.93,18.42,69.8,16.11,3369157
Qaanaaq,0,GL,1543771192,95,77.48,-69.36,-8.68,7.4,3831208
Punta Arenas,0,CL,1543766400,48,-53.16,-70.91,60.8,36.91,3874787
Nikolskoye,75,RU,1543768200,85,59.7,30.79,21.2,6.71,546105
Havre,90,US,1543770180,84,48.55,-109.68,26.96,4.38,5656497
Hobart,75,AU,1543768200,71,-42.88,147.33,51.8,11.41,2163355
Saldanha,12,PT,1543771197,94,41.42,-6.55,44.79,5.17,2737599
Bredasdorp,8,ZA,1543770000,56,-34.53,20.04,68.0,24.16,1015776
Quatre Cocos,20,MU,1543770000,78,-20.21,57.76,75.2,6.93,1106643
Beloha,56,MG,1543771201,52,-25.17,45.06,76.74,16.35,1067565
Geraldton,90,CA,1543770000,85,49.72,-86.95,17.6,16.11,5960603
Guadalupe y Calvo,0,MX,1543771203,38,26.09,-106.96,58.69,2.71,4005370
Roald,75,NO,1543769400,87,62.58,6.12,44.6,11.41,3141667
Volksrust,12,ZA,1543771207,27,-27.36,29.88,67.47,3.04,943032
Port Hedland,75,AU,1543770000,73,-20.31,118.58,75.2,5.82,2063042
Kapaa,90,US,1543769760,56,22.08,-159.32,71.06,6.93,5848280
Norman Wells,75,CA,1543766400,84,65.28,-126.83,5.0,3.36,6089245
Tautira,20,PF,1543770000,66,-17.73,-149.15,84.2,3.36,4033557
Mataura,32,NZ,1543771214,87,-46.19,168.86,57.07,2.93,6201424
Touros,40,BR,1543770000,62,-5.2,-35.46,87.8,13.87,3386213
Busselton,0,AU,1543770744,100,-33.64,115.35,61.8,18.48,2075265
Hualmay,8,PE,1543771217,63,-11.1,-77.61,74.13,6.29,3939761
Grand Gaube,20,MU,1543770000,78,-20.01,57.66,75.2,6.93,934479
Ostrovnoy,92,RU,1543771219,92,68.05,39.51,25.44,17.81,556268
Moosomin,44,CA,1543771221,89,50.14,-101.67,16.12,4.5,6078359
Den Helder,75,NL,1543769700,93,52.96,4.76,53.6,20.8,2757220
Chambery,92,FR,1543768200,100,45.57,5.93,50.0,11.41,3027422
Rikitea,24,PF,1543770768,100,-23.12,-134.97,76.87,12.88,4030556
Bethel,90,US,1543769760,88,60.79,-161.76,35.96,20.8,5880568
Nyurba,8,RU,1543771226,0,63.29,118.35,-44.41,2.71,2018735
Hilo,90,US,1543769580,96,19.71,-155.08,68.0,4.7,5855927
New Norfolk,75,AU,1543768200,71,-42.78,147.06,51.8,11.41,2155415
Ayan,8,TR,1543771231,80,40.67,33.6,24.94,2.15,749747
Vao,12,EE,1543771232,95,59.1,26.19,14.46,7.85,588365
Nongan,90,CN,1543770000,75,44.43,125.17,46.4,13.42,2035565
Gizo,0,IL,1543769400,55,31.8,34.94,68.0,2.24,6693679
Komsomolskiy,80,RU,1543770772,90,67.55,63.78,21.57,11.21,1486910
Kloulklubed,75,PW,1543769400,94,7.04,134.26,78.8,4.7,7671223
Narsaq,12,GL,1543771241,48,60.91,-46.05,-3.91,2.15,3421719
Mirnyy,80,RU,1543771242,84,56.57,36.46,18.42,9.86,502265
Cidreira,88,BR,1543771243,87,-30.17,-50.22,66.21,16.46,3466165
Vanimo,88,PG,1543771244,100,-2.67,141.3,83.17,3.49,2084442
Deputatskiy,48,RU,1543771246,32,69.3,139.9,-22.9,2.59,2028164
Dikson,20,RU,1543771247,100,73.51,80.55,-18.67,21.61,1507390
Jamestown,0,AU,1543770636,89,-33.21,138.6,43.44,3.71,2069194
Cockburn Town,0,TC,1543771251,99,21.46,-71.14,81.1,17.92,3576994
Port Alfred,0,ZA,1543770796,88,-33.59,26.89,67.69,5.39,964432
Broken Hill,0,AU,1543770000,50,-31.97,141.45,57.2,5.82,2173911
Pontes e Lacerda,92,BR,1543771255,90,-15.23,-59.33,75.3,7.4,3453060
Port Elizabeth,90,US,1543770720,93,39.31,-74.98,61.88,6.93,4501427
Hithadhoo,88,MV,1543771257,100,-0.6,73.08,83.04,10.54,1282256
Khuzdar,0,PK,1543771258,85,27.8,66.62,40.11,1.92,7082481
Sitka,0,US,1543771260,59,37.17,-99.65,43.44,13.89,4267710
Chuy,0,UY,1543771024,75,-33.69,-53.46,64.86,22.17,3443061
Rocha,0,UY,1543771207,56,-34.48,-54.34,63.69,16.69,3440777
Kargil,24,PK,1543771263,72,34.56,76.13,-9.08,0.69,1267776
Chillicothe,1,US,1543770900,51,39.33,-82.98,65.3,11.41,4828890
Salalah,20,OM,1543769400,65,17.01,54.1,78.8,4.7,286621
Kayerkan,20,RU,1543771267,0,69.35,87.76,-37.66,2.93,1497337
Concordia,20,AR,1543770000,37,-31.4,-58.02,68.0,9.17,3435261
Ossora,24,RU,1543771269,100,59.24,163.07,8.34,8.75,2122389
Manado,20,ID,1543770000,94,1.49,124.85,75.2,0.81,1636544
Gondar,75,PT,1543768200,87,41.82,-8.78,59.0,10.29,2736041
Chokurdakh,48,RU,1543770767,62,70.62,147.9,-7.28,10.31,2126123
Kruisfontein,0,ZA,1543771275,84,-34.0,24.73,64.27,10.2,986717
Souillac,90,FR,1543768200,93,45.6,-0.6,55.4,13.87,3026644
Pangnirtung,75,CA,1543767480,92,66.15,-65.72,12.2,2.24,6096551
Puerto Ayora,75,EC,1543770000,57,-0.74,-90.35,78.8,12.75,3652764
Iqaluit,90,CA,1543770000,85,63.75,-68.52,17.6,3.36,5983720
Eureka,90,US,1543769700,100,40.8,-124.16,39.2,10.29,5563397
Saint-Philippe,90,CA,1543768500,99,45.36,-73.48,35.78,8.05,6138908
Faanui,80,PF,1543771285,98,-16.48,-151.75,83.67,14.45,4034551
Troitskoye,56,RU,1543771287,89,52.98,84.68,4.2,5.39,1489209
Moron,56,VE,1543771290,73,10.49,-68.2,76.83,5.06,3631878
Ulety,44,RU,1543771292,48,51.36,112.48,-4.76,15.57,2014369
Verkhnyaya Inta,80,RU,1543771293,69,65.99,60.32,22.2,6.17,1487332
Pisco,0,PE,1543770000,30,-13.71,-76.2,71.6,11.41,3932145
Laguna,5,MX,1543768800,46,27.52,-110.01,69.8,3.36,4013704
Albany,90,US,1543769640,92,42.65,-73.75,42.98,5.82,5106834
Alofi,80,NU,1543766400,94,-19.06,-169.92,71.6,2.24,4036284
Te Anau,0,NZ,1543771301,86,-45.41,167.72,51.27,4.61,2181625
Lavrentiya,48,RU,1543771302,100,65.58,-170.99,23.1,5.17,4031637
Port Hardy,75,CA,1543766400,100,50.7,-127.42,30.2,2.24,6111862
Kabare,75,RW,1543766400,64,-1.65,29.38,73.4,6.93,216281
Edd,0,ER,1543771306,59,13.93,41.69,72.42,1.7,338345
Esmeraldas,75,BR,1543770000,65,-19.76,-44.31,78.8,8.05,3464008
Necochea,0,AR,1543771310,80,-38.55,-58.74,61.8,9.98,3430443
Hofn,40,IS,1543770000,58,64.25,-15.21,28.4,17.22,2630299
Guanica,1,PR,1543769400,99,17.97,-66.91,84.2,17.22,4565090
Georgetown,75,GY,1543770000,62,6.8,-58.16,87.8,13.87,3378644
Along,32,IN,1543771315,68,28.17,94.8,51.09,2.26,1278969
Xining,0,CN,1543771316,29,36.62,101.77,22.29,7.96,1788852
Goderich,8,CA,1543771317,93,43.74,-81.71,51.09,16.91,5962442
Tiksi,36,RU,1543771320,68,71.64,128.87,-4.76,9.08,2015306
Yellowknife,75,CA,1543766400,92,62.45,-114.38,15.8,4.7,6185377
Christchurch,90,NZ,1543768200,100,-43.53,172.64,57.2,11.41,2192362
Sungaipenuh,76,ID,1543771324,97,-2.08,101.38,66.03,0.36,1625929
Saskylakh,32,RU,1543771326,60,71.97,114.09,-12.5,6.96,2017155
Lompoc,1,US,1543769880,71,34.64,-120.46,55.94,8.05,5367788
Ribeira Grande,75,PT,1543768200,93,38.52,-28.7,66.2,17.22,3372707
Beranang,75,MY,1543770000,94,2.88,101.87,77.0,2.15,1734802
Awbari,0,LY,1543771330,42,26.59,12.77,52.8,7.18,2219235
Ponta do Sol,92,BR,1543771333,100,-20.63,-46.0,70.75,3.15,3453439
Mount Gambier,90,AU,1543770780,87,-37.83,140.78,55.4,14.99,2156643
Atar,0,MR,1543771335,10,20.52,-13.05,80.92,8.3,2381334
Namibe,0,AO,1543771336,93,-15.19,12.15,74.17,9.98,3347019
Wewak,12,PG,1543771338,100,-3.55,143.63,73.45,2.37,2083537
Bubaque,32,GW,1543771339,88,11.28,-15.83,85.29,7.85,2374583
Nouadhibou,0,MR,1543771342,37,20.93,-17.03,78.18,2.93,2377457
Ancud,0,CL,1543770000,45,-41.87,-73.83,68.0,8.05,3899695
Lima,40,PE,1543770000,60,-12.06,-77.04,75.2,11.41,3936456
Tifton,75,US,1543770660,98,31.45,-83.51,73.04,15.23,4226552
Nikki,36,BJ,1543771347,33,9.94,3.21,82.5,6.4,2392505
Peace River,90,CA,1543769220,92,56.23,-117.29,17.6,5.82,6100069
Airai,0,TL,1543771349,90,-8.93,125.41,66.03,1.36,1651810
Amnat Charoen,8,TH,1543771351,73,15.86,104.63,75.03,5.06,1621060
Bacolod,48,PH,1543771352,93,10.68,122.95,74.49,7.29,1729564
Le Pont-de-Claix,75,FR,1543768200,93,45.12,5.7,48.2,4.7,3002585
Barrow,0,AR,1543771354,68,-38.31,-60.23,66.79,7.96,3833859
Leningradskiy,88,RU,1543771355,100,69.38,178.42,11.76,30.33,2123814
Lincoln,75,GB,1543769400,87,53.23,-0.54,55.4,8.05,2644487
Nome,1,US,1543770900,32,30.04,-94.42,73.94,8.05,4732862
Castro,0,CL,1543770000,45,-42.48,-73.76,68.0,8.05,3896218
San Policarpo,88,PH,1543771360,100,12.18,125.51,77.64,11.54,1688696
Upernavik,76,GL,1543771362,100,72.79,-56.15,20.35,9.64,3418910
Sioux Lookout,90,CA,1543770000,85,50.1,-91.92,23.0,8.05,6148373
Svetlaya,68,RU,1543771364,100,46.54,138.33,38.67,8.63,2015852
Kupang,0,ID,1543771365,100,-10.16,123.6,76.83,3.6,2057087
East London,20,ZA,1543770000,73,-33.02,27.91,69.8,4.7,1006984
Banda Aceh,24,ID,1543771368,93,5.56,95.32,76.65,3.94,1215502
Davila,0,PH,1543771369,100,18.47,120.58,77.73,18.7,1715335
Hassleholm,75,SE,1543769400,100,56.16,13.77,41.0,5.82,2707399
Chara,40,GR,1543767600,87,39.42,22.43,48.2,3.36,262462
Groningen,75,NL,1543770000,93,53.22,6.57,53.6,17.22,2755251
Hamilton,75,BM,1543769700,78,32.3,-64.78,71.6,12.75,3573197
Provideniya,76,RU,1543771375,100,64.42,-173.23,22.6,6.73,4031574
Thana Bhawan,0,IN,1543771376,81,29.58,77.42,52.26,2.48,1254673
Longyearbyen,75,NO,1543769400,73,78.22,15.63,24.8,27.51,2729907
Margate,40,AU,1543770000,76,-43.03,147.26,50.0,6.93,2158744
Cherskiy,56,RU,1543771380,77,68.75,161.3,-7.28,1.7,2126199
Juneau,40,US,1543769760,96,58.3,-134.42,28.04,3.94,5554072
Bourail,0,NC,1543771382,95,-21.57,165.5,62.34,3.94,2141714
Katsuura,90,JP,1543769100,93,33.93,134.5,59.0,9.17,1865309
Tasiilaq,64,GL,1543769400,57,65.61,-37.64,21.2,4.7,3424607
New Castle,40,US,1543770840,63,41.0,-80.35,60.8,11.41,5203127
Sovetskiy,88,RU,1543771387,74,56.76,48.47,12.21,3.71,490040
Knyaze-Volkonskoye,40,RU,1543770000,79,48.46,135.46,19.4,8.95,2021954
San Pedro,0,AR,1543771390,54,-33.68,-59.66,69.94,7.85,3428576
Jumla,0,NP,1543771391,85,29.28,82.18,13.6,1.7,1283285
Arroio Grande,0,BR,1543771394,87,-32.24,-53.09,68.14,19.48,3471422
Elko,90,US,1543769760,77,40.83,-115.76,26.96,6.93,5703670
Egvekinot,56,RU,1543771396,66,66.32,-179.17,1.72,2.26,4031742
Kimbe,80,PG,1543771397,100,-5.56,150.15,81.19,2.59,2093967
Guerrero Negro,0,MX,1543771399,64,27.97,-114.04,65.89,17.25,4021858
Port Augusta,0,AU,1543770000,82,-32.49,137.76,55.4,6.93,2063056
Grindavik,20,IS,1543770000,68,63.84,-22.43,26.6,20.8,3416888
Tailai,88,CN,1543771402,34,46.39,123.41,39.3,15.57,2034599
Camacha,40,PT,1543768200,68,33.08,-16.33,66.2,6.93,2270385
Severo-Kurilsk,56,RU,1543771405,100,50.68,156.12,26.88,12.44,2121385
Zyryanka,68,RU,1543771406,63,65.73,150.89,-3.01,9.98,2119283
Khakhea,8,BW,1543771407,11,-24.69,23.5,85.2,12.44,933649
Pokhara,24,NP,1543771408,80,28.21,83.99,41.59,1.92,1282898
Tuktoyaktuk,75,CA,1543770000,85,69.44,-133.03,12.2,10.29,6170031
Oksfjord,40,NO,1543769400,74,70.24,22.35,37.4,24.16,778362
Holme,75,GB,1543769400,81,53.7,-2.31,53.6,9.17,2655237
Broome,40,GB,1543769760,82,52.47,1.45,55.76,11.41,2656067
Kushiro,20,JP,1543771415,70,43.11,144.15,18.24,3.94,2129072
Caronport,80,CA,1543771417,94,50.46,-105.81,25.71,9.75,5917430
Ust-Kut,44,RU,1543771418,60,56.78,105.75,-13.72,5.28,2013923
San Quintin,0,PH,1543771419,80,17.54,120.52,64.77,2.93,1688687
Wichian Buri,12,TH,1543771420,87,15.66,101.11,72.42,2.82,1605024
Rincon,90,US,1543769940,100,32.3,-81.24,67.46,9.17,4218882
Chapais,90,CA,1543770000,100,49.78,-74.86,23.0,9.17,5919850
Buraydah,40,SA,1543766400,49,26.33,43.97,68.0,9.17,107304
Mar del Plata,0,AR,1543771278,27,-46.43,-67.52,77.14,14.67,3863379
Vardo,90,US,1543770360,92,39.62,-77.74,50.0,3.36,4372777
Sarmanovo,0,RU,1543770000,56,55.25,52.59,12.2,4.47,498537
Shitanjing,76,CN,1543771430,54,39.23,106.34,0.06,2.48,1794971
Tubuala,40,PA,1543770000,66,9.52,-79.03,86.0,5.82,3700393
Ust-Kuyga,44,RU,1543771433,40,70.0,135.55,-26.05,4.05,2013921
Yeppoon,0,AU,1543770000,69,-23.13,150.74,75.2,2.24,2142316
Caravelas,32,BR,1543771436,99,-17.73,-39.27,80.25,18.25,3466980
Danilovka,88,RU,1543771438,93,50.35,44.12,24.9,6.73,567177
Arlit,0,NE,1543771439,30,18.74,7.39,67.02,2.93,2447513
Ushibuka,92,JP,1543771440,100,32.19,130.02,62.97,9.75,1849154
Turukhansk,24,RU,1543771441,0,65.8,87.96,-40.58,3.38,1488903
Roebourne,36,AU,1543771443,96,-20.77,117.15,67.02,4.94,2062276
Mendoza,20,AR,1543771336,65,-32.89,-68.84,59.28,4.38,3844421
Kapuskasing,90,CA,1543769100,92,49.42,-82.43,26.6,13.87,5989403
Kavieng,56,PG,1543771447,100,-2.57,150.8,85.02,4.16,2094342
Ambon,92,FR,1543768200,100,47.55,-2.56,57.2,14.99,3037899
Rio Gallegos,75,AR,1543770000,27,-51.62,-69.22,73.4,18.34,3838859
Faya,0,SA,1543766400,77,18.39,42.45,62.6,4.61,110690
Victoria,75,BN,1543770000,94,5.28,115.24,78.8,2.82,1733782
Kaeo,92,NZ,1543771453,98,-35.1,173.78,61.44,16.02,2189343
Butaritari,0,KI,1543771455,100,3.07,172.79,84.34,1.59,2110227
Kungurtug,24,RU,1543771457,62,50.6,97.53,-12.05,7.4,1501377
Leibnitz,75,AT,1543769400,100,46.78,15.54,32.0,3.36,2772753
Saint-Louis,75,CH,1543770000,87,47.59,7.56,53.6,3.36,2978742
Losevo,90,RU,1543770000,92,51.73,38.83,26.6,6.71,497206
Kudahuvadhoo,68,MV,1543771462,99,2.67,72.89,84.39,13.78,1337607
Namatanai,80,PG,1543771463,100,-3.66,152.44,83.76,6.29,2090021
Kodiak,90,US,1543770420,92,39.95,-94.76,35.96,19.46,4407665
Innisfail,90,CA,1543770000,92,52.02,-113.95,19.4,3.36,5983430
Leshukonskoye,48,RU,1543771467,59,64.9,45.76,25.89,9.42,535839
Hay River,40,CA,1543770000,85,60.82,-115.79,10.4,10.29,5972762
Sembakung,0,ID,1543771469,96,3.82,117.25,75.66,1.92,1627877
Danielskuil,24,ZA,1543771471,14,-28.19,23.54,71.02,8.97,1011918
Chulucanas,0,PE,1543771472,43,-5.1,-80.16,87.72,8.19,3698105
Alugan,88,PH,1543771474,100,12.22,125.48,77.64,11.54,1731248
Pouebo,20,NC,1543771477,92,-20.4,164.57,70.39,6.29,2138607
Padang,44,ID,1543771479,100,-0.92,100.36,80.79,3.94,1633419
Kaset Sombun,8,TH,1543771481,89,16.28,101.95,68.82,2.37,1610187
Prince Rupert,1,CA,1543770000,100,54.32,-130.32,32.0,5.82,6113406
Taos,90,US,1543769760,68,36.41,-105.57,28.04,3.36,5493811
Bambous Virieux,20,MU,1543770000,78,-20.34,57.76,75.2,6.93,1106677
Camasca,0,HN,1543771487,47,14.0,-88.38,86.82,3.04,3614328
San Ramon,40,NI,1543770000,60,12.92,-85.84,75.2,4.7,3616584
Cayenne,75,GF,1543770000,74,4.94,-52.33,84.2,11.41,3382160
Wanning,75,AT,1543769400,100,48.64,13.53,30.2,9.17,3220813
Okha,56,RU,1543771493,100,53.59,142.95,8.65,3.04,2122614
Kapustin Yar,80,RU,1543771494,93,48.58,45.77,30.3,5.61,552999
Avarua,40,CK,1543766400,94,-21.21,-159.78,69.8,2.24,4035715
Dwarka,0,IN,1543770000,59,28.58,77.04,60.8,2.71,1273294
Clyde River,90,CA,1543770000,91,70.47,-68.59,-0.41,13.87,5924351
Pevek,76,RU,1543771498,94,69.7,170.27,2.94,18.7,2122090
Barabai,36,ID,1543771500,94,-2.59,115.38,75.57,1.92,1650064
Lanzhou,75,CN,1543770000,53,36.06,103.82,23.0,2.24,1804430
Kieta,80,PG,1543771502,98,-6.22,155.63,79.35,1.81,2094027
Lagoa,0,PT,1543768200,72,37.14,-8.45,62.6,8.05,2267254
Sindor,8,RU,1543771505,73,62.87,51.9,6.27,4.16,492860
Aksarka,92,RU,1543771506,70,66.56,67.8,-1.12,5.28,1512019
Sao Filipe,0,CV,1543771507,87,14.9,-24.5,77.59,11.77,3374210
Kolondieba,0,ML,1543771508,43,11.09,-6.89,83.4,3.15,2454934
Arjona,20,CO,1543770000,70,10.25,-75.34,87.8,9.17,3689570
Emerald,12,AU,1543770000,65,-23.53,148.16,78.8,5.82,2167426
Taksimo,56,RU,1543771513,64,56.36,114.84,-16.33,3.27,2015701
Constantine,75,DZ,1543770000,81,36.36,6.61,48.2,3.36,2501152
Xiuyan,92,CN,1543771515,97,40.29,123.27,48.84,6.62,2033602
Hasaki,75,JP,1543770000,93,35.73,140.83,50.0,3.36,2112802
Torquay,75,GB,1543769400,93,50.47,-3.52,57.2,9.17,2635650
Yumen,76,CN,1543771519,84,40.29,97.04,16.98,13.78,1528998
Lorengau,0,PG,1543771520,100,-2.02,147.27,83.13,4.27,2092164
Palamos,0,ES,1543770000,81,41.85,3.13,53.6,1.12,3114566
Zaozerne,24,UA,1543771522,96,51.37,23.94,25.57,13.67,702421
Paris,90,FR,1543768200,87,48.86,2.35,59.0,10.29,2988507
Port Lincoln,88,AU,1543771525,93,-34.72,135.86,60.81,13.11,2063036
Coahuayana,0,MX,1543771526,60,18.62,-100.35,76.87,3.04,3981460
Tefe,40,BR,1543770000,70,-3.35,-64.71,87.8,3.36,3661944
Alamosa,90,US,1543769700,64,37.47,-105.87,17.78,4.05,5411479
Meulaboh,88,ID,1543771529,100,4.14,96.13,79.26,2.93,1214488
Kodinsk,48,RU,1543771531,24,58.6,99.18,-16.78,5.17,1503037
Ambagarh Chauki,20,IN,1543771532,78,20.78,80.75,59.77,3.71,1278869
Constitucion,5,MX,1543769100,23,23.99,-104.67,60.8,9.17,4011743
Los Llanos de Aridane,75,ES,1543770000,64,28.66,-17.92,69.8,3.36,2514651
Dingle,36,PH,1543771535,92,11.0,122.67,76.11,9.98,1714733
Kalemie,8,CD,1543771536,99,-5.95,29.2,76.69,4.27,214974
Tura,0,IN,1543771538,84,25.52,90.21,55.59,1.92,1254046
San Patricio,0,PY,1543771539,54,-26.98,-56.83,71.88,8.08,3437029
Zhangye,64,CN,1543771541,73,38.94,100.46,14.37,6.96,1785036
Timbuktu,0,ML,1543771544,21,16.77,-3.01,81.33,5.73,2449067
Selizharovo,92,RU,1543771546,85,56.86,33.45,17.74,10.65,497661
Parfenyevo,92,RU,1543771547,81,58.48,43.41,21.79,14.9,512576
Arraial do Cabo,40,BR,1543770000,78,-22.97,-42.02,80.6,12.75,3471451
Gwembe,0,ZM,1543771549,63,-16.5,27.61,74.49,2.93,917011
Mataquescuintla,20,GT,1543766400,64,14.53,-90.19,69.8,9.17,3592635
Matara,0,PE,1543770000,42,-13.74,-72.9,62.6,11.41,3948642
Merrill,40,US,1543769580,81,42.03,-121.6,28.94,5.82,5572979
Richards Bay,88,ZA,1543771555,89,-28.77,32.06,71.7,5.39,962367
Borogontsy,0,RU,1543771556,0,62.67,131.17,-52.87,2.82,2026160
Tucumcari,90,US,1543769580,72,35.17,-103.73,35.06,8.05,5495360
Taoudenni,0,ML,1543771559,19,22.68,-3.98,72.42,12.21,2450173
Svetlogorsk,20,RU,1543770000,92,53.14,59.15,10.4,3.27,584051
Benjamin Aceval,0,PY,1543770000,53,-24.97,-57.57,77.0,14.99,3439348
Road Town,40,VG,1543770000,66,18.42,-64.62,86.0,10.29,3577430
Tavda,64,RU,1543771564,68,58.04,65.27,14.73,5.39,1489962
Sooke,90,CA,1543769580,92,48.37,-123.73,42.8,4.7,6151264
Beringovskiy,20,RU,1543771566,100,63.05,179.32,9.82,16.46,2126710
Yulara,88,AU,1543770000,94,-25.24,130.99,69.8,8.05,6355222
Ouro Preto do Oeste,92,BR,1543771568,98,-10.75,-62.22,76.15,1.92,3924948
Rio Grande,40,BR,1543770000,37,-32.03,-52.1,71.6,23.04,3451138
Sehithwa,12,BW,1543771571,53,-20.47,22.7,85.56,3.04,933109
Tuatapere,0,NZ,1543771572,92,-46.13,167.69,57.34,7.18,2180815
Hovd,20,NO,1543769400,52,63.83,10.7,46.4,32.21,7626384
Ystad,90,SE,1543769400,93,55.43,13.82,42.8,11.41,2662149
Batagay-Alyta,48,RU,1543771575,27,67.8,130.41,-19.75,2.71,2027042
Bandarbeyla,0,SO,1543771577,100,9.49,50.81,80.16,18.03,64814
Lismore,90,AU,1543770000,69,-28.81,153.28,73.4,11.41,2160063
Luderitz,20,NA,1543771579,76,-26.65,15.16,61.53,20.71,3355672
Banjar,80,ID,1543771584,98,-7.37,108.54,71.88,2.15,1650233
Santander,56,PH,1543771585,100,9.42,123.33,79.39,12.44,1687965
Atambua,8,ID,1543771586,100,-9.11,124.89,76.15,1.59,1651103
Skibbereen,75,IE,1543768200,87,51.55,-9.27,51.8,18.34,2961459
Rome,40,IT,1543769400,76,41.89,12.48,55.4,2.24,6539761
Naze,75,NG,1543770000,74,5.43,7.07,86.0,2.24,2337542
Poshekhonye,80,RU,1543771591,84,58.5,39.12,21.97,14.0,506029
Aklavik,75,CA,1543770000,85,68.22,-135.01,24.8,5.82,5882953
Miramar,0,CR,1543770000,47,10.09,-84.73,80.6,3.36,3622854
Abu Samrah,48,SY,1543771595,92,35.3,37.18,52.62,7.85,172515
Esperance,40,TT,1543770000,78,10.24,-61.45,78.8,13.87,3573739
Sairang,0,IN,1543771597,91,23.81,92.66,57.79,2.15,1257743
Coquimbo,90,CL,1543770000,72,-29.95,-71.34,64.4,9.17,3893629
Kuusamo,90,FI,1543769400,92,65.96,29.19,23.0,10.29,649924
Avera,90,US,1543771020,93,33.19,-82.53,71.06,10.29,4231997
Opuwo,44,NA,1543771602,49,-18.06,13.84,77.82,5.39,3354077
Ketchikan,20,US,1543769580,88,55.34,-131.65,32.0,8.05,5554428
Amapa,5,HN,1543770000,46,15.09,-87.97,91.4,17.22,3603330
Riyadh,0,SA,1543770000,32,24.63,46.72,69.8,4.7,108410
Ahipara,92,NZ,1543771607,100,-35.17,173.16,62.07,19.93,2194098
Carnarvon,0,ZA,1543771609,14,-30.97,22.13,73.23,11.65,1014034
Taltal,0,CL,1543771611,64,-25.41,-70.49,68.5,2.59,3870243
Mount Pleasant,1,US,1543770900,46,33.16,-94.97,54.68,10.29,4712933
Solnechnyy,64,RU,1543771614,67,50.72,136.64,-0.8,2.59,2016307
Hami,32,CN,1543771615,48,42.84,93.51,1.27,4.94,1529484
San Jeronimo,0,PE,1543770000,42,-13.65,-73.37,62.6,11.41,3929607
Tiarei,20,PF,1543770000,66,-17.53,-149.33,84.2,3.36,4033356
Cap Malheureux,20,MU,1543770000,78,-19.98,57.61,75.2,6.93,934649
Ambilobe,92,MG,1543771620,100,-13.19,49.05,70.84,1.48,1082243
Maceio,40,BR,1543770000,70,-9.67,-35.74,89.6,19.46,3395981
Keflavik,20,IS,1543770000,68,64.0,-22.56,26.6,20.8,3415496
Grootfontein,20,NA,1543771623,53,-19.56,18.1,81.19,2.48,3357114
Vila Velha,40,BR,1543770000,66,-3.71,-38.6,87.8,13.87,6320062
Hervey Bay,8,AU,1543770000,83,-25.3,152.85,77.0,12.75,2146219
Flinders,90,AU,1543770000,87,-34.58,150.85,57.2,5.82,6255012
Nanortalik,0,GL,1543771629,95,60.14,-45.24,20.22,5.73,3421765
Hare Bay,75,CA,1543770420,92,48.86,-53.99,30.2,5.28,5970873
Jalu,64,LY,1543771632,41,29.03,21.55,63.24,6.4,86049
Karratha,36,AU,1543771633,96,-20.74,116.85,67.02,4.94,6620339
Berlevag,75,NO,1543769400,86,70.86,29.09,32.0,24.16,780687
Buchanan,40,LR,1543770000,83,5.88,-10.05,84.2,6.73,2278158
Kondagaon,8,IN,1543771636,75,19.59,81.66,58.56,5.5,1266216
Lebu,0,ET,1543771638,60,8.96,38.73,52.89,5.61,344979
Mercedes,0,UY,1543771639,55,-33.25,-58.03,68.95,10.98,3441684
Half Moon Bay,1,US,1543770000,71,37.46,-122.43,51.8,10.29,5354943
Tabou,24,CI,1543771641,100,4.42,-7.36,82.05,8.97,2281120
Monsenhor Gil,40,BR,1543770000,39,-5.56,-42.61,96.8,4.7,3394621
Charleville,0,AU,1543770000,25,-26.41,146.24,78.8,9.17,2171764
Port Shepstone,92,ZA,1543771645,89,-30.74,30.45,70.84,5.39,964406
Codrington,90,AU,1543770000,69,-28.95,153.24,73.4,11.41,2160063
Altay,0,CN,1543771648,29,47.83,88.13,-24.2,1.7,1529651
Sorong,64,ID,1543771649,100,-0.86,131.25,80.74,3.49,1626542
Kutum,0,SD,1543771651,25,14.2,24.66,70.3,10.65,371745
Lloydminster,90,CA,1543770000,92,53.28,-110.01,21.2,11.41,6058024
Teya,40,MX,1543769100,58,21.05,-89.07,87.8,18.34,3526662
Sisimiut,80,GL,1543771655,100,66.94,-53.67,20.22,4.83,3419842
Bilibino,68,RU,1543771657,83,68.06,166.44,-20.02,2.48,2126682
Challans,90,FR,1543770000,100,46.85,-1.88,57.2,17.22,3027513
Punta Alta,0,AR,1543770000,40,-27.46,-55.82,73.4,11.41,3429886
Mezhova,0,UA,1543771660,54,48.26,36.73,4.11,2.82,701305
Fairbanks,75,US,1543769580,87,64.84,-147.72,23.0,3.36,5861897
Monrovia,40,LR,1543770000,83,6.33,-10.8,84.2,4.16,2274895
Jalingo,48,NG,1543771665,27,10.3,10.93,80.92,6.4,2351027
Hobyo,8,SO,1543771666,83,5.35,48.53,78.63,13.44,57000
Big Rapids,90,US,1543769760,99,43.7,-85.48,39.2,10.31,4986020
Bathsheba,75,BB,1543770000,66,13.22,-59.52,86.0,23.04,3374083
Baruun-Urt,0,MN,1543771670,39,46.68,113.28,-0.13,14.45,2032614
Saint Anthony,1,US,1543769760,76,43.97,-111.68,17.06,3.36,5606187
Pacific Grove,1,US,1543769700,71,36.62,-121.92,50.0,6.51,5380437
Kui Buri,24,TH,1543771673,86,12.07,99.86,74.62,1.81,1152562
Severobaykalsk,36,RU,1543771674,65,55.65,109.32,-16.78,3.38,2016910
Vilhena,90,BR,1543766400,100,-12.74,-60.15,69.8,10.29,3924679
Liverpool,75,GB,1543769400,81,53.41,-2.98,53.6,11.41,2644210
Key West,90,US,1543770900,79,47.93,-96.78,24.8,14.99,5059429
Bowen,8,AU,1543770000,94,-20.01,148.25,75.2,4.7,2174444
Harper,1,US,1543769700,29,30.3,-99.24,63.5,8.05,4696310
Brae,76,GB,1543769400,86,60.4,-1.35,42.8,2.24,2654970
Cabedelo,40,BR,1543770000,58,-6.97,-34.84,87.8,11.41,3404558
Gualaquiza,68,EC,1543771685,76,-3.4,-78.58,73.0,2.93,3657661
Daru,20,SL,1543771686,57,7.99,-10.85,85.74,2.71,2409663
Zaysan,0,KZ,1543771688,23,47.47,84.87,-17.23,2.59,1517060
Belyy Yar,40,RU,1543770000,55,53.6,91.39,8.6,4.47,1510377
Pravda,32,BG,1543770000,100,43.16,25.69,21.2,1.59,728016
Dumas,32,IN,1543766400,73,21.09,72.71,73.4,3.36,1255364
Pimentel,36,BR,1543771695,67,-3.7,-45.5,87.85,4.5,3389609
Tessalit,0,ML,1543771696,18,20.2,1.01,73.23,6.73,2449893
Kilindoni,80,TZ,1543771697,100,-7.91,39.67,82.86,7.85,157429
Kamenica,64,SI,1543768200,86,46.0,15.2,37.4,1.12,3191845
Tynda,88,RU,1543771699,66,55.15,124.74,-10.61,3.71,2014718
Hirara,8,JP,1543771701,99,24.8,125.28,76.74,9.19,1862505
Galle,1,US,1543769760,35,29.74,-97.91,69.26,9.17,4695361
Zhangjiakou,36,CN,1543771704,37,40.77,114.88,18.6,9.75,2033196
Nemuro,0,JP,1543771705,100,43.32,145.57,44.47,16.69,2128975
College,75,US,1543769580,87,64.86,-147.8,26.96,3.36,5859699
Wainwright,92,CA,1543771709,91,52.84,-110.86,20.85,4.38,6175059
Camanducaia,75,BR,1543770000,51,-22.76,-46.14,82.4,8.05,3468023
Linxia,0,CN,1543771711,67,35.6,103.21,5.91,1.92,1803331
Port Macquarie,75,AU,1543770000,77,-31.43,152.91,66.2,10.29,2152659
Aswan,32,EG,1543771714,64,24.09,32.9,59.73,7.52,359792
Bonthe,12,SL,1543771715,74,7.53,-12.5,84.57,2.71,2409914
Youkounkoun,12,GN,1543771716,22,12.53,-13.12,92.22,6.96,2414055
Bodden Town,20,KY,1543770000,74,19.28,-81.25,87.8,12.75,3580733
Mandalgovi,12,MN,1543771718,44,45.76,106.27,-3.73,5.73,2030065
Leirvik,75,NO,1543769400,93,59.78,5.5,44.6,11.41,3147822
Potam,5,MX,1543768800,46,27.6,-110.38,69.8,3.36,3992154
Omboue,36,GA,1543771722,100,-1.57,9.26,80.74,7.07,2396853
Thinadhoo,64,MV,1543771498,100,0.53,72.93,82.9,12.88,1337610
Ubinskoye,80,RU,1543771724,76,55.31,79.68,-3.19,11.99,1488708
Medea,40,DZ,1543770000,77,36.27,2.77,60.8,5.82,2488835
Sandwick,92,GB,1543765800,100,54.57,-2.89,48.2,21.92,2640416
Rosarito,40,CO,1543770000,77,4.91,-75.23,82.4,8.05,3676604
Skelleftea,90,SE,1543769400,100,64.75,20.95,33.8,9.17,602913
Manggar,76,ID,1543771730,100,-2.88,108.27,76.69,2.93,1636426
Isangel,12,VU,1543771731,100,-19.55,169.27,77.14,10.2,2136825
Husavik,44,CA,1543771734,92,50.56,-96.99,19.68,7.4,5961417
La Romana,40,DO,1543770000,66,18.43,-68.97,86.0,13.87,3500957
Diffa,36,NE,1543771736,28,13.32,12.61,76.74,7.63,2445704
Barsovo,75,RU,1543770000,84,61.17,73.17,3.2,4.47,1510842
Phan Thiet,0,VN,1543771739,97,10.93,108.1,78.27,13.67,1571058
Foz do Iguacu,75,BR,1543770000,61,-25.55,-54.59,78.8,12.75,3463030
Port Blair,24,IN,1543771741,95,11.67,92.75,85.29,9.08,1259385
Gibraltar,0,ES,1543770000,63,36.15,-5.35,68.0,11.41,2411585
Port Moresby,20,PG,1543766400,88,-9.47,147.16,78.8,10.76,2088122
Amuntai,36,ID,1543771745,94,-2.42,115.25,75.57,1.92,1651461
Akonolinga,56,CM,1543771746,85,3.77,12.24,75.39,1.25,2235776
Yuryev-Polskiy,76,RU,1543771747,88,56.5,39.68,21.03,10.65,466215
Mount Isa,0,AU,1543770000,22,-20.73,139.49,89.6,9.17,2065594
Altamira,75,BR,1543766400,70,-3.2,-52.21,86.0,4.7,3407882
Cacule,44,BR,1543771751,82,-14.5,-42.22,80.02,4.83,3468349
Atasu,48,KZ,1543771752,60,48.68,71.64,-2.83,3.15,1526041
Warrnambool,88,AU,1543771581,89,-38.38,142.48,58.87,21.94,2144528
Yelizovo,64,RU,1543770000,70,53.19,158.38,-0.41,8.95,2119538
Saint-Francois,90,FR,1543770000,87,46.42,3.91,55.4,4.7,2980080
Santa Isabel do Rio Negro,32,BR,1543771757,48,-0.41,-65.02,93.97,8.97,3662489
Skjervoy,0,NO,1543769400,64,70.03,20.97,37.4,25.28,777682
Araouane,0,ML,1543771759,14,18.9,-3.53,78.54,8.19,2460954
Montepuez,8,MZ,1543771760,78,-13.13,39.0,75.21,6.4,1037125
Limeira,40,BR,1543770000,51,-22.56,-47.4,82.4,8.05,3458575
Ilulissat,75,GL,1543769400,78,69.22,-51.1,17.6,2.82,3423146
Abha,0,SA,1543766400,77,18.22,42.5,62.6,1.92,110690
Marsh Harbour,68,BS,1543771766,96,26.54,-77.06,81.42,14.9,3571913
Igrim,20,RU,1543771768,74,63.19,64.42,10.68,2.71,1505965
Balaipungut,76,ID,1543771769,98,1.11,101.31,74.67,2.37,1650600
Oriximina,80,BR,1543771513,75,-1.77,-55.87,85.65,2.59,3393471
Fortuna,0,ES,1543770000,67,38.18,-1.13,62.6,5.82,2517679
Grenfell,0,AU,1543771775,62,-33.9,148.16,49.24,3.94,2164457
Muros,90,ES,1543770000,100,42.77,-9.06,57.2,19.46,3115824
Dongzhen,48,CN,1543771777,82,43.33,129.73,20.62,1.92,2034221
Buluang,90,PH,1543770000,83,10.47,123.98,77.0,3.36,1717512
Urla,40,TR,1543769400,76,38.32,26.77,53.6,10.29,298316
Malanje,92,AO,1543771781,100,-9.54,16.35,65.94,3.15,2239862
Marawi,36,PH,1543771782,96,8.0,124.29,66.39,2.37,1701054
La Ronge,90,CA,1543770000,92,55.1,-105.3,19.4,5.82,6050066
Talnakh,32,RU,1543771784,0,69.49,88.39,-36.04,2.59,1490256
Nova Ushytsya,0,UA,1543771785,73,48.84,27.27,12.25,6.62,699899
Morro Bay,1,US,1543769760,61,35.37,-120.85,51.98,11.41,5374920
Pandan,76,PH,1543771788,100,11.72,122.09,81.06,21.72,1695555
Plainview,1,US,1543769700,46,34.18,-101.71,46.04,6.93,5528450
Khangarh,0,PK,1543770000,77,29.91,71.16,62.6,5.17,1174211
Nantucket,90,US,1543771380,100,41.28,-70.1,51.98,16.11,4944903
Jizan,0,SA,1543766400,74,16.89,42.56,84.2,4.7,105299
San Andres,12,PH,1543771794,100,13.32,122.68,80.61,18.37,1690438
Jinchang,20,CN,1543771796,71,38.52,102.19,14.5,1.14,1805733
Miranda,80,CO,1543771798,100,3.25,-76.23,58.83,2.15,3674702
Formosa,0,AR,1543770000,46,-26.19,-58.17,73.4,19.46,3433899
Petropavlovsk-Kamchatskiy,76,RU,1543770000,70,53.05,158.65,-0.41,8.95,2122104
Kasulu,75,TZ,1543766400,88,-4.57,30.11,75.2,0.13,158214
Kaputa,12,ZM,1543771805,93,-8.47,29.66,68.77,2.48,176758
Santa Fe,0,AR,1543771807,64,-31.62,-60.7,69.81,8.75,3836277
Bria,0,CF,1543771809,55,6.54,21.99,74.49,4.94,239899
Saurimo,64,AO,1543771810,98,-9.66,20.4,66.48,1.92,145531
Anadyr,0,RU,1543770000,83,64.73,177.51,-5.81,8.95,2127202
Plettenberg Bay,0,ZA,1543771657,94,-34.05,23.37,63.37,9.08,964712
Tual,92,ID,1543771814,100,-5.67,132.75,82.68,7.96,1623197
Winneba,20,GH,1543770000,79,5.35,-0.62,84.2,10.29,2294034
Colonia,20,RO,1543768200,68,46.6,23.97,28.4,10.29,664460
Srednekolymsk,56,RU,1543771819,68,67.46,153.71,-0.85,5.39,2121025
Tazovskiy,44,RU,1543771820,0,67.47,78.7,-30.05,10.65,1489853
Olinda,75,EC,1543770000,61,-2.03,-79.75,80.6,6.93,3650121
Barga,75,IT,1543771200,100,44.07,10.48,48.2,4.7,3182358
Haines Junction,0,CA,1543771825,83,60.75,-137.51,-11.33,2.26,5969025
Maine-Soroa,24,NE,1543771826,28,13.21,12.02,77.05,7.63,2441447
Makat,92,KZ,1543771827,65,47.65,53.35,29.13,11.77,608872
Kalevala,80,FI,1543771828,88,64.12,29.58,21.84,7.74,650705
Kurchum,0,KZ,1543771830,97,48.57,83.65,-5.62,3.04,1521762
San Marcos de Colon,0,HN,1543771831,52,13.43,-86.8,87.0,3.6,3601888
Lodeynoye Pole,88,RU,1543771832,78,60.73,33.55,20.31,7.96,534560
Odessa,0,US,1543770900,35,31.85,-102.37,54.86,10.29,5527554
Never,88,RU,1543771834,69,53.98,124.16,-6.56,2.59,2019296
Sretensk,48,RU,1543771836,71,52.24,117.7,-0.58,5.17,2016110
Magadan,0,RU,1543771837,100,59.56,150.8,1.23,14.79,2123628
Ormara,12,PK,1543771838,90,25.21,64.64,72.64,5.5,1168700
Sobolevo,68,RU,1543771839,84,54.43,31.9,16.98,9.98,525426
Ongandjera,48,NA,1543771840,49,-17.88,15.07,79.26,13.67,3354178
Chingirlau,92,KZ,1543771842,79,51.09,54.08,9.15,4.05,610091
Yaan,64,NG,1543771843,54,7.38,8.57,88.84,2.93,2338660
Chicama,20,PE,1543770000,78,-7.84,-79.15,71.6,10.29,3698359
Aljezur,0,PT,1543771846,100,37.31,-8.8,58.47,5.39,2271968
Lewiston,90,US,1543771260,85,46.42,-117.02,37.94,1.92,5598538
Lebanon,90,US,1543771200,88,43.64,-72.25,37.04,8.52,5088597
Porto Novo,75,BR,1543770000,51,-23.68,-45.44,82.4,8.05,6322184
Troianul,36,RO,1543771851,100,44.0,25.02,16.62,2.93,664591
Presidencia Roque Saenz Pena,36,AR,1543771852,60,-26.79,-60.44,72.87,14.0,3840300
Muscatine,40,US,1543770900,93,41.42,-91.04,39.02,6.93,4868404
Kiama,90,AU,1543770000,87,-34.67,150.86,57.2,5.82,2161515
Sao Francisco,40,BR,1543770000,54,-25.65,-53.85,78.8,12.75,3467400
Mokhsogollokh,8,RU,1543771857,0,61.4,128.95,-43.46,2.71,2019867
La Tuque,92,CA,1543771858,87,47.44,-72.79,29.89,6.06,6050416
Santiago del Estero,48,AR,1543771860,52,-27.8,-64.26,72.87,7.74,3835869
Ibotirama,48,BR,1543771861,87,-12.18,-43.22,80.16,5.73,3461525
Kumluca,32,TR,1543771862,93,36.37,30.29,37.05,0.69,305681
Tianpeng,92,CN,1543771863,100,28.88,112.34,56.17,9.75,1797543
Shizunai,12,JP,1543771864,100,42.33,142.37,23.05,3.71,2128025
Qinhuangdao,44,CN,1543771866,85,39.94,119.59,26.43,3.27,1797595
Westport,40,IE,1543768200,100,53.8,-9.52,48.2,13.87,2960970
Kathu,36,ZA,1543771868,11,-27.7,23.05,76.74,10.87,991664
Mayor Pablo Lagerenza,0,PY,1543771869,60,-19.93,-60.77,85.29,15.68,3867427
Praia,75,BR,1543766400,65,-20.25,-43.81,78.8,6.93,3460954
Gumdag,44,TM,1543771872,92,39.2,54.59,39.03,5.17,161943
Maldonado,75,UY,1543770000,51,-34.91,-54.96,62.6,18.34,3441894
Adiake,75,CI,1543770000,88,5.29,-3.3,77.0,11.41,2293428
Guangyuan,100,CN,1543771876,66,32.43,105.86,41.64,6.62,1806466
Buin,75,CL,1543770000,44,-33.73,-70.74,80.6,8.05,3897774
Umm Kaddadah,0,SD,1543771879,21,13.6,26.69,76.15,11.21,364933
Baykalsk,48,RU,1543771880,100,51.52,104.15,4.92,9.75,2026979
Sabha,0,LY,1543771881,42,27.03,14.43,54.6,8.52,2212775
Eldoret,90,KE,1543770000,87,0.52,35.27,60.8,6.93,198629
Havoysund,20,NO,1543769400,74,71.0,24.66,37.4,28.86,779622
Yakeshi,64,CN,1543771887,59,49.28,120.73,11.31,20.49,2033536
Alenquer,75,BR,1543770000,70,-1.95,-54.74,86.0,3.36,3407980
Chuguyevka,44,RU,1543771889,65,44.17,133.87,38.94,4.72,2025286
Green River,40,US,1543769640,76,41.53,-109.47,14.0,6.93,5826559
The Valley,40,AI,1543770000,62,18.22,-63.06,86.0,14.99,3573374
Aasiaat,92,GL,1543771893,100,68.71,-52.87,23.59,11.77,3424901
Steamboat Springs,1,US,1543770900,84,40.48,-106.83,14.0,2.93,5582371
Nadym,76,RU,1543771895,70,65.53,72.51,-9.67,9.64,1498087
Kifri,12,IQ,1543771896,84,34.69,44.96,44.43,2.82,94298
Luang Prabang,0,LA,1543771898,95,19.89,102.14,59.46,1.81,1655559
Novomoskovsk,64,RU,1543771899,90,54.01,38.29,20.22,7.85,518557
Savalou,8,BJ,1543771900,52,7.93,1.98,86.28,2.93,2391895
Victoria,75,BN,1543770000,94,5.28,115.24,78.8,2.82,1733782
Caxito,40,BR,1543770000,78,-22.65,-42.51,80.6,12.75,3451261
Yar-Sale,80,RU,1543771904,86,66.83,70.83,-5.35,12.77,1486321
Okato,100,NZ,1543771905,98,-39.19,173.88,61.98,16.24,2185763
Sechura,0,PE,1543771906,74,-5.56,-80.82,76.42,10.09,3691954
Ust-Maya,0,RU,1543771907,0,60.42,134.54,-52.24,2.59,2013918
Kiruna,75,SE,1543769400,81,67.86,20.23,32.0,8.05,605155
Julfa,75,AZ,1543770000,76,38.95,45.63,48.2,2.24,148251
Allapalli,56,IN,1543771911,84,19.43,80.06,65.22,1.92,1278987
Sao Felix do Xingu,80,BR,1543771912,83,-6.64,-51.99,81.19,2.82,3388847
Katobu,24,ID,1543771913,100,-4.94,122.53,80.61,3.6,1640972
